id,type,address,number,postal_code,municipality,province,location,public,available,hours,full_address,lat,lon,new_lat,new_lon,new_province
76.0,,Rue du parc,1.0,4540,Jehay,Liège,,,,,"Rue du parc, 4540 Jehay, Liège",50.5786968,5.3257587,50.8548868892,4.39561040308,Brussels Hoofdstedelijk Gewest
118.0,,Kerkplein,1.0,3790,Moelingen,Limburg,,Y,,,"Kerkplein, 3790 Moelingen, Limburg",50.7572831,5.7107026,50.85413307016667,4.313577483516667,Brussels Hoofdstedelijk Gewest
445.0,,Nazarethsesteenweg,77.0,9800,Astene,Oost-vlaanderen,,N,,,"Nazarethsesteenweg, 9800 Astene, Oost-vlaanderen",50.9741866,3.572166,50.8099807248,4.41681175132,Brussels Hoofdstedelijk Gewest
476.0,,Cathilleweg t,38.0,8490,Jabbeke,West-vlaanderen,,,,,"Cathilleweg t, 8490 Jabbeke, West-vlaanderen",51.215602,3.0710999,50.851044733,4.3554092519,Brussels Hoofdstedelijk Gewest
572.0,,Boomkensstraat,303.0,3500,Hasselt,Limburg,,,,,"Boomkensstraat, 3500 Hasselt, Limburg",50.9225396,5.3296581,50.81032543566666,4.319345785533334,Brussels Hoofdstedelijk Gewest
623.0,,Weiveldlaan,19.0,1930,Zaventem,Vlaams-brabant,,,,,"Weiveldlaan, 1930 Zaventem, Vlaams-brabant",50.8697359,4.496495,50.84758516475,4.425895823375,Brussels Hoofdstedelijk Gewest
629.0,,Onder den toren  ,5.0,2800,Mechelen,Antwerpen,,,,,"Onder den toren  , 2800 Mechelen, Antwerpen",51.0286956,4.4781156,50.79719999999999,4.353769999999999,Brussels Hoofdstedelijk Gewest
803.0,,Rue neuve,123.0,1000,Bruxelles,Bruxelles-brussel,,,,,"Rue neuve, 1000 Bruxelles, Bruxelles-brussel",50.8527348,4.3559377,50.87709610300001,4.3408926042,Brussels Hoofdstedelijk Gewest
823.0,,Hombeeksesteenweg ,323.0,2800,Mechelen,Antwerpen,,,,,"Hombeeksesteenweg , 2800 Mechelen, Antwerpen",51.0168688,4.4658472,50.837119511,4.340102838633333,Brussels Hoofdstedelijk Gewest
824.0,,Eggestraat,1.0,2800,Mechelen,Antwerpen,,,,,"Eggestraat, 2800 Mechelen, Antwerpen",51.0155466,4.4649361,50.82309943825,4.369860541775,Brussels Hoofdstedelijk Gewest
831.0,,Avenue du général jadot,11.0,1360,Perwez,Brabant wallon,,Y,,,"Avenue du général jadot, 1360 Perwez, Brabant wallon",50.6216383,4.806159,50.8388742722,4.2925719007000005,Brussels Hoofdstedelijk Gewest
981.0,,Nelissenlaan ,13.0,3620,Lanaken,Limburg,,Y,,,"Nelissenlaan , 3620 Lanaken, Limburg",50.838479,5.6272245,50.815355299,4.270006831850001,Brussels Hoofdstedelijk Gewest
1023.0,,Rue station de redu,,6890,Redu,Luxembourg,,,,,"Rue station de redu, 6890 Redu, Luxembourg",50.0075195,5.1597629,50.8765373855,4.381597807133334,Brussels Hoofdstedelijk Gewest
1130.0,,Stationsplein,55.0,8800,Roeselare,West-vlaanderen,,Y,,,"Stationsplein, 8800 Roeselare, West-vlaanderen",50.9492425,3.1295561,50.81665,4.39924,Brussels Hoofdstedelijk Gewest
1153.0,,Entrepotstraat,2.0,9300,Sint-niklaas,Oost-vlaanderen,,Y,,,"Entrepotstraat, 9300 Sint-niklaas, Oost-vlaanderen",51.1749362,4.1664699,50.85178112344445,4.381640242944445,Brussels Hoofdstedelijk Gewest
1276.0,,Place de la gare,1.0,6724,Houdemont,Luxembourg,,Y,,,"Place de la gare, 6724 Houdemont, Luxembourg",49.815273,6.129582999999999,50.872365,4.410236666666667,Brussels Hoofdstedelijk Gewest
1290.0,,Koninginnelaan ,42.0,3630,Maasmechelen,Limburg,,,,,"Koninginnelaan , 3630 Maasmechelen, Limburg",50.9893593,5.6982069,50.837423837,4.44711935185,Brussels Hoofdstedelijk Gewest
1323.0,,Rue des biolleux,3.0,4800,Verviers,Liège,,Y,,,"Rue des biolleux, 4800 Verviers, Liège",50.6227276,5.8357882,50.85389000000001,4.334910000000001,Brussels Hoofdstedelijk Gewest
1358.0,,Leopold ii-laan,2.0,8670,Koksijde,West-vlaanderen,,Y,,,"Leopold ii-laan, 8670 Koksijde, West-vlaanderen",51.12411,2.676923,50.87546423566667,4.3167526107333325,Brussels Hoofdstedelijk Gewest
1366.0,,Breestraat,109.0,9200,Dendermonde,Oost-vlaanderen,,,,,"Breestraat, 9200 Dendermonde, Oost-vlaanderen",51.014595,4.10828,50.86122538725,4.28890460255,Brussels Hoofdstedelijk Gewest
1368.0,,Au gris han,12.0,6970,Tenneville,Luxembourg,,N,,,"Au gris han, 6970 Tenneville, Luxembourg",50.0908568,5.4891976,50.81254333333334,4.34804,Brussels Hoofdstedelijk Gewest
1447.0,,Rue large voie,74.0,4040,Herstal,Liège,,Y,,,"Rue large voie, 4040 Herstal, Liège",50.667452,5.635542,50.86831853933334,4.365875912833333,Brussels Hoofdstedelijk Gewest
1453.0,,Sportstraat,2.0,8020,Oostkamp,West-vlaanderen,,,,,"Sportstraat, 8020 Oostkamp, West-vlaanderen",51.0948586,3.2084484,50.89666998016667,4.3218465892,Brussels Hoofdstedelijk Gewest
1516.0,,Tuinbouwersstraat,89.0,1020,Brussel,Bruxelles-brussel,,N,,,"Tuinbouwersstraat, 1020 Brussel, Bruxelles-brussel",50.8824898,4.3506197,50.83789,4.3141549999999995,Brussels Hoofdstedelijk Gewest
1556.0,,Rue de waremme ,123.0,4530,Villers-le-bouillet,Liège,,,,,"Rue de waremme , 4530 Villers-le-bouillet, Liège",50.583484,5.2599935,50.828306000000005,4.395887999999999,Brussels Hoofdstedelijk Gewest
1578.0,,Maaltekouter,1.0,9051,Gent,Oost-vlaanderen,,Y,,,"Maaltekouter, 9051 Gent, Oost-vlaanderen",51.0263383,3.6891299,50.7932484545,4.3251877059499995,Brussels Hoofdstedelijk Gewest
1664.0,,Rue . delperdange,,6600,Bastogne,Luxembourg,,,,,"Rue . delperdange, 6600 Bastogne, Luxembourg",50.0074976,5.774639,50.82086,4.339015,Brussels Hoofdstedelijk Gewest
1693.0,,Rue des déportées,48.0,1367,Ramillies,Brabant wallon,,,,,"Rue des déportées, 1367 Ramillies, Brabant wallon",50.6469927,4.8766841,50.786137388499995,4.366995255625,Brussels Hoofdstedelijk Gewest
1705.0,,Boulevard de régent,54.0,1000,Bruxelles,Bruxelles-brussel,,,,,"Boulevard de régent, 1000 Bruxelles, Bruxelles-brussel",50.8390923,4.362643,50.87297077225,4.297792865725,Brussels Hoofdstedelijk Gewest
1748.0,,Place de belle-maison,2.0,4570,Marchin,Liège," entrée, gauche",,,,"Place de belle-maison, 4570 Marchin, Liège",50.4804521,5.2254359,50.82917853085714,4.4087545857,Brussels Hoofdstedelijk Gewest
1753.0,,Parklaan,3.0,9400,Ninove,Oost-vlaanderen,kassa,Y,,,"Parklaan, 9400 Ninove, Oost-vlaanderen",50.8292649,4.0196544,50.836588,4.364782000000001,Brussels Hoofdstedelijk Gewest
1771.0,,Chaussée de mons à gand,,7860,Lessines,Hainaut, fond réfectaire,,,,"Chaussée de mons à gand, 7860 Lessines, Hainaut",50.7161696,3.8510992,50.82651873966667,4.2940981924666675,Brussels Hoofdstedelijk Gewest
1797.0,,Rue de la chavée,57.0,5660,Frasnes,Namur," vestiaire, rdc, hall entrée",,,,"Rue de la chavée, 5660 Frasnes, Namur",50.0829775,4.5014117,50.8308591065,4.3776277866,Brussels Hoofdstedelijk Gewest
1900.0,,Boulevard d angleterre,,1420,Braine-l alleud,Brabant wallon,-1 fitness,,,,"Boulevard d angleterre, 1420 Braine-l alleud, Brabant wallon",50.66514,4.3789469,50.896802146750005,4.388131612275,Brussels Hoofdstedelijk Gewest
1923.0,,Rue de namur ,,4000,Liège,Liège,1ière étage,Y,,,"Rue de namur , 4000 Liège, Liège",50.6194327,5.5760172,50.81196356122222,4.434012432277778,Brussels Hoofdstedelijk Gewest
1959.0,,Veldstraat,12.0,2260,Westerlo,Antwerpen,nabij onthaal,,,,"Veldstraat, 2260 Westerlo, Antwerpen",51.1141865,4.8670459,50.83266829916666,4.352727556833333,Brussels Hoofdstedelijk Gewest
2017.0,,Rode kruislaan,20.0,2400,Mol,Antwerpen, inkomhal,,,,"Rode kruislaan, 2400 Mol, Antwerpen",51.1814899,5.1124081,50.861885,4.42534,Brussels Hoofdstedelijk Gewest
2076.0,,Willy vandensteenplein ,,2920,Kalmthout,Antwerpen,buitenkast,,,,"Willy vandensteenplein , 2920 Kalmthout, Antwerpen",51.3646335,4.4645092,50.86621,4.307826666666667,Brussels Hoofdstedelijk Gewest
2100.0,,Rue impasse herman,,4840,Welkenraedt,Liège,,,,,"Rue impasse herman, 4840 Welkenraedt, Liège",50.6568973,5.9630388,50.86370236399999,4.3305300939,Brussels Hoofdstedelijk Gewest
2108.0,,Werkhuizenkaai,,1000,Brussel,Bruxelles-brussel,"lokaal bewaking, ing markt",,,,"Werkhuizenkaai, 1000 Brussel, Bruxelles-brussel",50.8773825,4.3662051,50.805837706999995,4.337447749550001,Brussels Hoofdstedelijk Gewest
2132.0,,Weerstandsplein,2.0,3290,Diest,Vlaams-brabant,hoofdingang,,,,"Weerstandsplein, 3290 Diest, Vlaams-brabant",50.9903176,5.0517381,50.859032697857145,4.3649878091000005,Brussels Hoofdstedelijk Gewest
2141.0,,Rue traversière,21.0,1210,Bruxelles,Bruxelles-brussel,rez à coté de l incendie,,,,"Rue traversière, 1210 Bruxelles, Bruxelles-brussel",50.8540576,4.369762,50.89335129733333,4.365433340999999,Brussels Hoofdstedelijk Gewest
2146.0,,Avenue du stade,19.0,4910,Theux,Liège,2e verd,,,,"Avenue du stade, 4910 Theux, Liège",50.5401239,5.8100904,50.816063158,4.36517959605,Brussels Hoofdstedelijk Gewest
2148.0,,Kanaalweg ,112.0,3980,Tessenderlo,Limburg,buiten EHBO lokaal,,,,"Kanaalweg , 3980 Tessenderlo, Limburg",51.0751694,5.1546684,50.805040375249995,4.393740477975,Brussels Hoofdstedelijk Gewest
2185.0,,Elshoutbaan,17.0,2930,Brasschaat,Antwerpen,balie zwembad glvl,,,,"Elshoutbaan, 2930 Brasschaat, Antwerpen",51.2829151,4.5131356,50.8730108398,4.39060357316,Brussels Hoofdstedelijk Gewest
2215.0,,Avenue sergent vrithoff ,2.0,5000,Namur,Namur,hall d entrée,,,,"Avenue sergent vrithoff , 5000 Namur, Namur",50.4664425,4.8450569,50.84284000000001,4.40878,Brussels Hoofdstedelijk Gewest
2216.0,,Rue m. bourtonbourt,2.0,5000,Namur,Namur,hall d entrée,,,,"Rue m. bourtonbourt, 5000 Namur, Namur",50.459267,4.8504571,50.84861636363636,4.30486090909091,Brussels Hoofdstedelijk Gewest
2256.0,,Chaussée de louvain,,1140,Bruxelles,Bruxelles-brussel,rez coulour,,,,"Chaussée de louvain, 1140 Bruxelles, Bruxelles-brussel",50.8554585,4.4001217,50.8920069102,4.334186980339999,Brussels Hoofdstedelijk Gewest
2301.0,,Rue de dinant,23.0,5570,Beauraing,Namur,bâtiment des primaires,,,,"Rue de dinant, 5570 Beauraing, Namur",50.1407182,4.9343979,50.8626925,4.3462475000000005,Brussels Hoofdstedelijk Gewest
2383.0,,Koning astridlaan,50.0,3500,Hasselt,Limburg,glvl onthaal,,,,"Koning astridlaan, 3500 Hasselt, Limburg",50.9315156,5.3310616,50.8357291894,4.3270885668,Brussels Hoofdstedelijk Gewest
2402.0,,Turnhoutsebaan ,,2110,Wijnegem,Antwerpen,infobalie/glvl,,,,"Turnhoutsebaan , 2110 Wijnegem, Antwerpen",51.2261354,4.5136387,50.85766621133333,4.4121170128,Brussels Hoofdstedelijk Gewest
2507.0,,Walstraat ,5.0,3300,Tienen,Vlaams-brabant,inkomhal ,,,,"Walstraat , 3300 Tienen, Vlaams-brabant",50.8059419,4.9232589,50.862656666666666,4.376333333333333,Brussels Hoofdstedelijk Gewest
2520.0,,Rue paquot,2.0,4280,Lens-saint-remy,Liège, buvette,,,,"Rue paquot, 4280 Lens-saint-remy, Liège",50.6578327,5.1295976,50.873327792333335,4.351174804466666,Brussels Hoofdstedelijk Gewest
2546.0,,Rue des trois bourdons,54.0,4840,Welkenraedt,Liège,Hexel 2 - Hall 5,,,,"Rue des trois bourdons, 4840 Welkenraedt, Liège",50.6554166,5.9770759,50.822466235,4.32304536898,Brussels Hoofdstedelijk Gewest
2575.0,,Rue de tiège,,4970,Stavelot,Liège,Terrain A1 de football,,,,"Rue de tiège, 4970 Stavelot, Liège",50.4690196,5.9681127,50.83197666666666,4.463933333333333,Brussels Hoofdstedelijk Gewest
2577.0,,Chemin de stocq,64.0,7804,Ostiches,Hainaut,cafétaria,,,,"Chemin de stocq, 7804 Ostiches, Hainaut",50.6697,3.7461188,50.819750000000006,4.38782,Brussels Hoofdstedelijk Gewest
2636.0,,Place de la monnaie,25.0,1000,Bruxelles,Bruxelles-brussel,dispatch sortie caisses,,,,"Place de la monnaie, 1000 Bruxelles, Bruxelles-brussel",50.8499843,4.353272,50.82938825075,4.3083624900999995,Brussels Hoofdstedelijk Gewest
2795.0,,Pi-2ième avenue ,65.0,4040,Herstal,Liège,"entrée, loge de garde",,,,"Pi-2ième avenue , 4040 Herstal, Liège",50.6952685,5.617798,50.856619626,4.322204344749999,Brussels Hoofdstedelijk Gewest
2796.0,,Gulden vlieslaan ,72.0,1060,Brussel,Bruxelles-brussel,kast 2 achter onthaalbalie,,,,"Gulden vlieslaan , 1060 Brussel, Bruxelles-brussel",50.8357771,4.3554936,50.793092539,4.4208486904,Brussels Hoofdstedelijk Gewest
2859.0,,Beukenootjesstraat ,,1120,Brussel,Bruxelles-brussel,glvl ad receptie,,,,"Beukenootjesstraat , 1120 Brussel, Bruxelles-brussel",50.8927048,4.3888758,50.784705,4.38283,Brussels Hoofdstedelijk Gewest
2866.0,,Verlorenkost,22.0,2260,Westerlo,Antwerpen,hoofdingang woonzorgcentrum,,,,"Verlorenkost, 2260 Westerlo, Antwerpen",51.0902631,4.921729,50.853235000000005,4.373725,Brussels Hoofdstedelijk Gewest
2932.0,,Rue sans-souci,,6600,Bastogne,Luxembourg,,,,,"Rue sans-souci, 6600 Bastogne, Luxembourg",50.0139386,5.7207149,50.78063,4.34107,Brussels Hoofdstedelijk Gewest
2941.0,,Rue du herou,,6660,Nadrin,Luxembourg,buvette football,,,,"Rue du herou, 6660 Nadrin, Luxembourg",50.1554156,5.6707126,50.8492,4.34285,Brussels Hoofdstedelijk Gewest
2976.0,,Rue emile romedenne,33.0,5150,Floreffe,Namur,rez buvette club de foot,,,,"Rue emile romedenne, 5150 Floreffe, Namur",50.4371257,4.7599895,50.828049326000006,4.3325472114200005,Brussels Hoofdstedelijk Gewest
2982.0,,St. bavostraat,66.0,2610,Wilrijk,Antwerpen,receptie op glvl,,,,"St. bavostraat, 2610 Wilrijk, Antwerpen",51.1703844,4.4017455,50.822578392,4.354104976766666,Brussels Hoofdstedelijk Gewest
2992.0,,Rue place n-d de la paix,5.0,5101,Erpent,Namur,salle des sports,,,,"Rue place n-d de la paix, 5101 Erpent, Namur",50.440394,4.897075,50.8165025,4.282655,Brussels Hoofdstedelijk Gewest
3054.0,,Rue walter soeur ,66.0,5590,Ciney,Namur,Hall d entrée,,,,"Rue walter soeur , 5590 Ciney, Namur",50.2970953,5.0976664,50.899515750333336,4.358842428516667,Brussels Hoofdstedelijk Gewest
3070.0,,Quai de la vesdre,33.0,4800,Verviers,Liège,,,,,"Quai de la vesdre, 4800 Verviers, Liège",50.588437,5.8460426,50.83580597666666,4.380290143300001,Brussels Hoofdstedelijk Gewest
3073.0,,Jacob jordaensstraat ,21.0,2018,Antwerpen,Antwerpen,"glvl, atrium",,,,"Jacob jordaensstraat , 2018 Antwerpen, Antwerpen",51.2089222,4.4152796,50.87414,4.32849,Brussels Hoofdstedelijk Gewest
3076.0,,Aarschotsesteenweg ,163.0,3012,Leuven,Vlaams-brabant,"1°verd,gang kleedkamers",,,,"Aarschotsesteenweg , 3012 Leuven, Vlaams-brabant",50.9163257,4.7168166,50.83828666666666,4.347526666666667,Brussels Hoofdstedelijk Gewest
3092.0,,Avenue des puddleurs,51.0,4100,Seraing,Liège,,,,,"Avenue des puddleurs, 4100 Seraing, Liège",50.5824836,5.4879769,50.86381492466666,4.35664871565,Brussels Hoofdstedelijk Gewest
3243.0,,Bergendriesstraat ,88.0,9160,Lokeren,Oost-vlaanderen,magazijn,,,,"Bergendriesstraat , 9160 Lokeren, Oost-vlaanderen",51.1124936,3.9870174,50.81317938033334,4.331222976433334,Brussels Hoofdstedelijk Gewest
3279.0,,Boulevard du tivoli,,7100,La,Hainaut,tss vestiaire& ingang,,,,"Boulevard du tivoli, 7100 La, Hainaut",50.4778346,4.1992003,50.89372514475,4.41880798065,Brussels Hoofdstedelijk Gewest
3284.0,,Dellestraat,55.0,3550,Heusden-zolder,Limburg,"glvl, receptie",,,,"Dellestraat, 3550 Heusden-zolder, Limburg",50.98805,5.24007,50.8853122875,4.3215804261,Brussels Hoofdstedelijk Gewest
3298.0,,Quai du rieu,,7322,Pommeroeul,Hainaut,cafétaria,,,,"Quai du rieu, 7322 Pommeroeul, Hainaut",50.4595457,3.7134352,50.84473,4.394316666666667,Brussels Hoofdstedelijk Gewest
3324.0,,Werkhuizenkaai ,,1000,Brussel,Bruxelles-brussel,cafetaria Jupiler,,,,"Werkhuizenkaai , 1000 Brussel, Bruxelles-brussel",50.8773825,4.3662051,50.87084000000001,4.4058399999999995,Brussels Hoofdstedelijk Gewest
3326.0,,Rue du monument,,4530,Villers-le-bouillet,Liège,,,,,"Rue du monument, 4530 Villers-le-bouillet, Liège",50.6118621,5.238428,50.8302562202,4.4542279592,Brussels Hoofdstedelijk Gewest
3357.0,,Rue des olympiades ,2.0,6000,Charleroi,Hainaut,étage -1 début couloir vest.,,,,"Rue des olympiades , 6000 Charleroi, Hainaut",50.424834,4.4473289,50.8067300435,4.40585186215,Brussels Hoofdstedelijk Gewest
3361.0,,Rue du chemin vert ,,6042,Lodelinsart,Hainaut,salle de tennis de table,,,,"Rue du chemin vert , 6042 Lodelinsart, Hainaut",50.4272646,4.4419197,50.84770291933333,4.4562201236,Brussels Hoofdstedelijk Gewest
3411.0,,Egide walschaertsstraat,7.0,2800,Mechelen,Antwerpen,muur refter productiehal,,,,"Egide walschaertsstraat, 2800 Mechelen, Antwerpen",51.0083408,4.4559709,50.8689025,4.3901900000000005,Brussels Hoofdstedelijk Gewest
3415.0,,Rue du vicinal,1.0,6800,Libramont-chevigny,Luxembourg,hall des bureaux à l étage,,,,"Rue du vicinal, 6800 Libramont-chevigny, Luxembourg",49.9216896,5.3793412,50.7987,4.375269999999999,Brussels Hoofdstedelijk Gewest
3453.0,,Bosdreef,57.0,9080,Lochristi,Oost-vlaanderen,"op glvl,buiten kleedkamers/kantine",,,,"Bosdreef, 9080 Lochristi, Oost-vlaanderen",51.0924222,3.8418101,50.894565,4.380865,Brussels Hoofdstedelijk Gewest
3507.0,,Bedrijfsstraat ,1208.0,3740,Bilzen,Limburg,EHBO-lokaal outbound,,,,"Bedrijfsstraat , 3740 Bilzen, Limburg",50.9540759,5.3623895,50.81601666666667,4.426236666666667,Brussels Hoofdstedelijk Gewest
3567.0,,Rue albert ier ,175.0,6240,Farciennes,Hainaut,rez de ch,,,,"Rue albert ier , 6240 Farciennes, Hainaut",50.4247718,4.5415133,50.88751959,4.3446391882,Brussels Hoofdstedelijk Gewest
3574.0,,Borgersteinlei ,201.0,2860,Sint-katelijne-waver,Antwerpen,"glvl,buitengevel parkingzijde",,,,"Borgersteinlei , 2860 Sint-katelijne-waver, Antwerpen",51.0392315,4.5092118,50.862199999999994,4.33701,Brussels Hoofdstedelijk Gewest
3586.0,,Rue domaine de bourgogne ,1.0,7730,Estaimbourg,Hainaut,,,,,"Rue domaine de bourgogne , 7730 Estaimbourg, Hainaut",50.6826103,3.3206515,50.83306,4.283275,Brussels Hoofdstedelijk Gewest
3615.0,,Rue du pont de pierre ,1.0,7860,Lessines,Hainaut,"rez,à 1 m porte d entrée",,,,"Rue du pont de pierre , 7860 Lessines, Hainaut",50.7109523,3.8333295,50.858270000000005,4.300533333333333,Brussels Hoofdstedelijk Gewest
3647.0,,Rue armées américain ,5.0,6960,Manhay,Luxembourg,vestiaire arbitre,,,,"Rue armées américain , 6960 Manhay, Luxembourg",50.2914436,5.6749057,50.87910071575,4.401965055325,Brussels Hoofdstedelijk Gewest
3704.0,,Rue de déportés ,76.0,7332,Sirault,Hainaut,cafétaria,,,,"Rue de déportés , 7332 Sirault, Hainaut",50.5071222,3.7917733,50.849200593750005,4.3244863028500005,Brussels Hoofdstedelijk Gewest
3754.0,,Rue du rempart ,19.0,7900,Leuze-en-hainaut,Hainaut,salle de gymnastique,,,,"Rue du rempart , 7900 Leuze-en-hainaut, Hainaut",50.5992418,3.6202522,50.82315330866667,4.346793730666667,Brussels Hoofdstedelijk Gewest
3760.0,,Rue de favray  ,1.0,4367,Crisnée,Liège,salle de conseil,,,,"Rue de favray  , 4367 Crisnée, Liège",50.7145605,5.3919968,50.805472396,4.3570431754,Brussels Hoofdstedelijk Gewest
3762.0,,Rue jean stassart  ,21.0,4367,Crisnée,Liège,hall vers cafétaria,,,,"Rue jean stassart  , 4367 Crisnée, Liège",50.7081407,5.3898948,50.83487900233333,4.411807355266667,Brussels Hoofdstedelijk Gewest
3802.0,,Rue de la campagne ,36.0,4500,Huy,Liège,"rez, ""Pleinevaux""",,,,"Rue de la campagne , 4500 Huy, Liège",50.5311467,5.256384,50.832582499999994,4.4392675,Brussels Hoofdstedelijk Gewest
3819.0,,Rue du joli bois  ,10.0,4557,Fraiture,Liège,centre d hippothérapie-entrée,,,,"Rue du joli bois  , 4557 Fraiture, Liège",50.478433,5.4194689,50.8323034544,4.3063241331999995,Brussels Hoofdstedelijk Gewest
3866.0,,Route de wasseige,290.0,5022,Cognelée,Namur,"rez, magasin Bigmat",Y,,,"Route de wasseige, 5022 Cognelée, Namur",50.5156187,4.9069285,50.848134358833335,4.349843032166667,Brussels Hoofdstedelijk Gewest
3867.0,,Rue de riverre ,118.0,5150,Floreffe,Namur,"rez, magasin Bigmat",Y,,,"Rue de riverre , 5150 Floreffe, Namur",50.4425292,4.7776535,50.818194418833336,4.417646716933333,Brussels Hoofdstedelijk Gewest
3874.0,,Allée jean hainaut,87.0,6120,Jamioulx,Hainaut,"rez de ch, bar",,,,"Allée jean hainaut, 6120 Jamioulx, Hainaut",50.3528183,4.4127538,50.834383986999995,4.3950358474,Brussels Hoofdstedelijk Gewest
3891.0,,Parc de la boverie ,1.0,4020,Liège,Liège,bât. des sports nautique,,,,"Parc de la boverie , 4020 Liège, Liège",50.6285758,5.5766713,50.804044579499994,4.32456789095,Brussels Hoofdstedelijk Gewest
3944.0,,Route de gimnée,,5680,Vodelée,Namur,infirmerie du Centre de Plongée,,,,"Route de gimnée, 5680 Vodelée, Namur",50.1594525,4.7293816,50.87792516366667,4.307165827266667,Brussels Hoofdstedelijk Gewest
4085.0,,Da vincilaan ,11.0,1930,Zaventem,Vlaams-brabant,"Corporate village geb.5°v,recep",,,,"Da vincilaan , 1930 Zaventem, Vlaams-brabant",50.8892246,4.4591702,50.84379151233333,4.335807959866667,Brussels Hoofdstedelijk Gewest
4118.0,,Rue de l eglise,86.0,1430,Quenast,Brabant wallon,Rue de l Eglise 86 secrétariat,,,,"Rue de l eglise, 1430 Quenast, Brabant wallon",50.6708679,4.1570176,50.882689869,4.335673106375,Brussels Hoofdstedelijk Gewest
4125.0,,Rue du paradis,79.0,1400,Nivelles,Brabant wallon,accueil local 31,,,,"Rue du paradis, 1400 Nivelles, Brabant wallon",50.608503,4.3253984,50.85641871857143,4.353764616342858,Brussels Hoofdstedelijk Gewest
4224.0,,Collegelaan,1.0,3600,Genk,Limburg,"speelplaats,buitenmuur",,,,"Collegelaan, 3600 Genk, Limburg",50.9771298,5.5182413,50.861875473,4.405124853333334,Brussels Hoofdstedelijk Gewest
4229.0,,Halmstraat ,3.0,3600,Genk,Limburg,"glvl,2de gang rechts",,,,"Halmstraat , 3600 Genk, Limburg",51.0004775,5.5105215,50.842960000000005,4.35364,Brussels Hoofdstedelijk Gewest
4242.0,,Schaarbeekstraat,27.0,9120,Melsele,Oost-vlaanderen,inkomhal Kringwinkel,,,,"Schaarbeekstraat, 9120 Melsele, Oost-vlaanderen",51.1969425,4.310547,50.808269176,4.383041350500001,Brussels Hoofdstedelijk Gewest
4248.0,,Meersstraat  ,5.0,8790,Waregem,West-vlaanderen,in inkom thv kassa 1ste verd,,,,"Meersstraat  , 8790 Waregem, West-vlaanderen",50.8845275,3.4289416,50.85497016875,4.4196046499,Brussels Hoofdstedelijk Gewest
4296.0,,Rue despars ,94.0,7500,Tournai,Hainaut,Pavillon 8-9-10 à l accueil DS,,,,"Rue despars , 7500 Tournai, Hainaut",50.5977878,3.3952846,50.820982367499994,4.300124611683333,Brussels Hoofdstedelijk Gewest
4365.0,,Rue théophile delbar,33.0,1410,Waterloo,Brabant wallon,rez de chée du boulodrome - entrée mur de droite,,,,"Rue théophile delbar, 1410 Waterloo, Brabant wallon",50.7166378,4.3968189,50.84499725,4.310650774,Brussels Hoofdstedelijk Gewest
4374.0,,Paul orbanpromenade ,8.0,8620,Nieuwpoort,West-vlaanderen,reftergebouwbuitenzijde,,,,"Paul orbanpromenade , 8620 Nieuwpoort, West-vlaanderen",51.1494245,2.7281605,50.79645206025,4.401164945975,Brussels Hoofdstedelijk Gewest
4380.0,,Beenhouwersstraat,28.0,2830,Willebroek,Antwerpen,windsurfchalet,,,,"Beenhouwersstraat, 2830 Willebroek, Antwerpen",51.0608559,4.40649,50.847336,4.299136,Brussels Hoofdstedelijk Gewest
4393.0,,Rue de mons ,1.0,4607,Bombaye,Liège,"cafetaria, rez de ch",,,,"Rue de mons , 4607 Bombaye, Liège",50.7351217,5.7192571,50.864462359,4.295126231275001,Brussels Hoofdstedelijk Gewest
4412.0,,Rue de fer ,,5000,Namur,Namur,2ème étage,,,,"Rue de fer , 5000 Namur, Namur",50.4665008,4.8654789,50.853576541,4.389396898928571,Brussels Hoofdstedelijk Gewest
4416.0,,Bat. 14 univ.de liège au sart tilman,,4000,Liège,Liège,sal polyvalen,,,,"Bat. 14 univ.de liège au sart tilman, 4000 Liège, Liège",50.6408274,5.576058499999999,50.82359944475,4.3779370450999995,Brussels Hoofdstedelijk Gewest
4485.0,,Rue des augustins,30.0,7500,Tournai,Hainaut,hall accueil,,,,"Rue des augustins, 7500 Tournai, Hainaut",50.6089047,3.3802229,50.8339352576,4.3377517758,Brussels Hoofdstedelijk Gewest
4553.0,,Boulevard général descamp ,1.0,6500,Beaumont,Hainaut,"1° étage,sur palier",,,,"Boulevard général descamp , 6500 Beaumont, Hainaut",50.238447,4.2363828,50.85051,4.433469999999999,Brussels Hoofdstedelijk Gewest
4576.0,,Rue du palais ,42.0,1030,Bruxelles,Bruxelles-brussel,hall accueil,,,,"Rue du palais , 1030 Bruxelles, Bruxelles-brussel",50.8659823,4.3661988,50.876446666666666,4.354708333333333,Brussels Hoofdstedelijk Gewest
4672.0,,Avenue de villas,3.0,4180,Hamoir,Liège,local de remplissage,,,,"Avenue de villas, 4180 Hamoir, Liège",50.4317566,5.5352772,50.829986610666666,4.373049446033334,Brussels Hoofdstedelijk Gewest
4681.0,,Hengstenberg,107.0,3090,Overijse,Vlaams-brabant,"ingang leveranciers,colli s ontva",,,,"Hengstenberg, 3090 Overijse, Vlaams-brabant",50.7789031,4.5019824,50.869814262,4.3722135119625,Brussels Hoofdstedelijk Gewest
4705.0,,Avenue de la porallée,40.0,4920,Aywaille,Liège,hall omnisports,,,,"Avenue de la porallée, 4920 Aywaille, Liège",50.4791647,5.6986837,50.800741702333326,4.340378130033334,Brussels Hoofdstedelijk Gewest
4711.0,,Boulevard d avroy,53.0,4000,Liège,Liège,accueil,,,,"Boulevard d avroy, 4000 Liège, Liège",50.6353953,5.5676214,50.809703485666674,4.389795721933333,Brussels Hoofdstedelijk Gewest
4739.0,,Atletiekstraat  ,1.0,2620,Hemiksem,Antwerpen,glvl-zwemhal,,,,"Atletiekstraat  , 2620 Hemiksem, Antwerpen",51.1354182,4.341373,50.81379749999999,4.341475,Brussels Hoofdstedelijk Gewest
4742.0,,Koolmijnlaan,189.0,3582,Beringen,Limburg,"aan inkombalie,glvlnst lift",,,,"Koolmijnlaan, 3582 Beringen, Limburg",51.0714977,5.2204579,50.84555999999999,4.385280000000001,Brussels Hoofdstedelijk Gewest
4745.0,,Rue des champs ,35.0,4801,Stembert,Liège,Hvl Dépot vestiaire-réfectoire,,,,"Rue des champs , 4801 Stembert, Liège",50.5945492,5.9008341,50.830397585,4.3454886031285715,Brussels Hoofdstedelijk Gewest
4818.0,,Rue du charroi ,20.0,1190,Bruxelles,Bruxelles-brussel,Appareil Mobile,Y,,,"Rue du charroi , 1190 Bruxelles, Bruxelles-brussel",50.8226561,4.3193178,50.86413,4.31799,Brussels Hoofdstedelijk Gewest
4825.0,,John kennedylaan ,25.0,9000,Gent,Oost-vlaanderen,bewakingspost BCG bij ingang,,,,"John kennedylaan , 9000 Gent, Oost-vlaanderen",51.1085591,3.7621728,50.77652500000001,4.376155000000001,Brussels Hoofdstedelijk Gewest
4826.0,,Klaverveld,4.0,9255,Buggenhout,Oost-vlaanderen,inkomhal links zwembad zijmuur,,,,"Klaverveld, 9255 Buggenhout, Oost-vlaanderen",51.0151118,4.1953007,50.865755970875,4.3380346728375,Brussels Hoofdstedelijk Gewest
4831.0,,Route du lac,1.0,4980,Trois-ponts,Liège,hall d entrée,,,,"Route du lac, 4980 Trois-ponts, Liège",50.35287690000001,5.9177072,50.79105,4.3438799999999995,Brussels Hoofdstedelijk Gewest
4833.0,,Rue chauw à roc,6.0,6044,Roux,Hainaut,hall d entrée,,,,"Rue chauw à roc, 6044 Roux, Hainaut",50.4289973,4.3963914,50.851593333333334,4.4006066666666666,Brussels Hoofdstedelijk Gewest
4850.0,,Rue darwin ,15.0,1190,Bruxelles,Bruxelles-brussel,piscine,,,,"Rue darwin , 1190 Bruxelles, Bruxelles-brussel",50.8185414,4.3511371,50.89396650166667,4.327699906133334,Brussels Hoofdstedelijk Gewest
4856.0,,Rue de la perche,88.0,7340,Colfontaine,Hainaut,locaux secours,,,,"Rue de la perche, 7340 Colfontaine, Hainaut",50.4093063,3.8575732,50.807865,4.365880000000001,Brussels Hoofdstedelijk Gewest
4901.0,,Rue du coeur dolent ,,7130,Binche,Hainaut,buvette,,,,"Rue du coeur dolent , 7130 Binche, Hainaut",50.4192171,4.1657302,50.83873,4.422905,Brussels Hoofdstedelijk Gewest
4972.0,,Langestraat ,12.0,9300,Aalst,Oost-vlaanderen,glvl op voorgevel,,,,"Langestraat , 9300 Aalst, Oost-vlaanderen",50.9404238,4.0661537,50.82440666666667,4.407743333333333,Brussels Hoofdstedelijk Gewest
5024.0,,Wespelaarsesteenweg,85.0,3150,Haacht,Vlaams-brabant,hoofdingang,,,,"Wespelaarsesteenweg, 3150 Haacht, Vlaams-brabant",50.9686825,4.6390792,50.8178960545,4.2619165982,Brussels Hoofdstedelijk Gewest
5031.0,,Rue de l ecluse ,21.0,6000,Charleroi,Hainaut,à l accueil rez de ch,,,,"Rue de l ecluse , 6000 Charleroi, Hainaut",50.4056669,4.4453621,50.8621028648,4.4194310058,Brussels Hoofdstedelijk Gewest
5040.0,,Rue saint-siméon,21.0,4682,Houtain-saint-siméon,Liège,local paroissial,,,,"Rue saint-siméon, 4682 Houtain-saint-siméon, Liège",50.73902,5.6096929,50.825120000000005,4.36104,Brussels Hoofdstedelijk Gewest
5059.0,,Molenstraat,8.0,2018,Antwerpen,Antwerpen,inkomhal,,,,"Molenstraat, 2018 Antwerpen, Antwerpen",51.20689,4.40719,50.9059717635,4.387828519075,Brussels Hoofdstedelijk Gewest
5063.0,,Rode kruislaan ,27.0,3700,S,Limburg,rechts aan hoofdingang,,,,"Rode kruislaan , 3700 S, Limburg",50.7769085,5.4522366,50.8463075,4.3600375,Brussels Hoofdstedelijk Gewest
5072.0,,Route militaire ,374.0,4432,Alleur,Liège,Espace Vital SA,,,,"Route militaire , 4432 Alleur, Liège",50.6795402,5.5078316,50.82907,4.384356666666667,Brussels Hoofdstedelijk Gewest
5106.0,,Rue des sabliers,87.0,6200,Châtelet,Hainaut,cafétaria,,,,"Rue des sabliers, 6200 Châtelet, Hainaut",50.4319273,4.5088052,50.855312523,4.3473164857999995,Brussels Hoofdstedelijk Gewest
5123.0,,"Grand route, voroux-goreux ",40.0,4347,Fexhe-le-haut-clocher,Liège,"salle buvette,mur",,,,"Grand route, voroux-goreux , 4347 Fexhe-le-haut-clocher, Liège",50.6584011,5.3666202,50.79927669671428,4.319993176014286,Brussels Hoofdstedelijk Gewest
5144.0,,Eversestraat ,1.0,1140,Brussel,Bruxelles-brussel,Blok 8 sportaccomodaties Inganssas,,,,"Eversestraat , 1140 Brussel, Bruxelles-brussel",50.8711454,4.4241868,50.849255,4.377315,Brussels Hoofdstedelijk Gewest
5181.0,,Rue de dave,270.0,5100,Jambesnamur,Namur,Corps de Garde,,,,"Rue de dave, 5100 Jambesnamur, Namur",50.4432218,4.8678878,50.8524499336,4.36261832024,Brussels Hoofdstedelijk Gewest
5247.0,,Pastorijstraat ,3.0,3040,Ottenburg,Vlaams-brabant,op buitenmuur vd gemeentezaal,,,,"Pastorijstraat , 3040 Ottenburg, Vlaams-brabant",50.7519239,4.6143045,50.84028367250001,4.3050800784,Brussels Hoofdstedelijk Gewest
5256.0,,Rue du chene ,18.0,6900,Waha,Luxembourg,local gymnastique,,,,"Rue du chene , 6900 Waha, Luxembourg",50.2098999,5.3424149,50.844256666666666,4.291346666666667,Brussels Hoofdstedelijk Gewest
5298.0,,Rue de meuse,9.0,4520,Wanze,Liège,couloir du laboratoire de l usine,,,,"Rue de meuse, 4520 Wanze, Liège",50.52724,5.20023,50.80567797525,4.317976204325,Brussels Hoofdstedelijk Gewest
5348.0,,Zeelaan,2.0,8380,Brugge,West-vlaanderen,aan de hoofdingang,,,,"Zeelaan, 8380 Brugge, West-vlaanderen",51.272216,3.1963568,50.83009,4.3179549999999995,Brussels Hoofdstedelijk Gewest
5355.0,,Rue godefroid de bouillon,2.0,1470,Baisy-thy,Brabant wallon,hall salle de sport,,,,"Rue godefroid de bouillon, 1470 Baisy-thy, Brabant wallon",50.5935211,4.4664719,50.82798098349999,4.2688673728,Brussels Hoofdstedelijk Gewest
5373.0,,Coupure rechts ,102.0,9000,Gent,Oost-vlaanderen,zone refter personeel,,,,"Coupure rechts , 9000 Gent, Oost-vlaanderen",51.0515346,3.7105345,50.838731327999994,4.375363016100001,Brussels Hoofdstedelijk Gewest
5374.0,,Thonissenlaan,11.0,3500,Hasselt,Limburg,zone refter personeel glvl,,,,"Thonissenlaan, 3500 Hasselt, Limburg",50.9330356,5.3348848,50.82110333333333,4.329623333333333,Brussels Hoofdstedelijk Gewest
5471.0,,Avenue léopold wiener ,60.0,1170,Bruxelles,Bruxelles-brussel,"piscine,entrée vestiaires",,,,"Avenue léopold wiener , 1170 Bruxelles, Bruxelles-brussel",50.8058513,4.4081877,50.821659999999994,4.445659999999999,Brussels Hoofdstedelijk Gewest
5484.0,,Liersesteenweg,1.0,2640,Mortsel,Antwerpen,"gelijkvloers, openlucht",,,,"Liersesteenweg, 2640 Mortsel, Antwerpen",51.1686541,4.4705622,50.879935,4.34909,Brussels Hoofdstedelijk Gewest
5501.0,,Chemin du peiffeschoff,111.0,6700,Arlon,Luxembourg,hall d entrée,,,,"Chemin du peiffeschoff, 6700 Arlon, Luxembourg",49.6937864,5.8383635,50.85588,4.429609999999999,Brussels Hoofdstedelijk Gewest
5513.0,,Avenue françois cornesse ,63.0,4920,Aywaille,Liège,bâtiment à 1 étage,,,,"Avenue françois cornesse , 4920 Aywaille, Liège",50.4742536,5.6614757,50.8511942146,4.30961525438,Brussels Hoofdstedelijk Gewest
5569.0,,Rue grand place ,20.0,7000,Mons,Hainaut,1er étage - gauche vestiaire,,,,"Rue grand place , 7000 Mons, Hainaut",50.4545097,3.9525536,50.83999819385714,4.328489752642858,Brussels Hoofdstedelijk Gewest
5592.0,,Avenue hansen soulie ,45.0,1150,Bruxelles,Bruxelles-brussel,salle de gym,,,,"Avenue hansen soulie , 1150 Bruxelles, Bruxelles-brussel",50.8304995,4.3992421,50.788301999,4.3325597792499995,Brussels Hoofdstedelijk Gewest
5593.0,,Rue chant d oiseau ,45.0,1150,Bruxelles,Bruxelles-brussel,hall sous sol,,,,"Rue chant d oiseau , 1150 Bruxelles, Bruxelles-brussel",50.8218659,4.4107387,50.85001666666666,4.368823333333333,Brussels Hoofdstedelijk Gewest
5630.0,,Brusselsesteenweg,340.0,3090,Overijse,Vlaams-brabant,bureau Anne De Pauw-oude ate,,,,"Brusselsesteenweg, 3090 Overijse, Vlaams-brabant",50.7829478,4.5082486,50.877799888333335,4.321962318433333,Brussels Hoofdstedelijk Gewest
5686.0,,Zavelberg,10.0,3980,Tessenderlo,Limburg,,,,,"Zavelberg, 3980 Tessenderlo, Limburg",51.0501304,5.0401072,50.812245,4.324355,Brussels Hoofdstedelijk Gewest
5707.0,,Pi hauts sarts-2ème avenue ,4.0,4040,Herstal,Liège,,,,,"Pi hauts sarts-2ème avenue , 4040 Herstal, Liège",50.6954702,5.6264984,50.83704690333333,4.275015933366667,Brussels Hoofdstedelijk Gewest
5734.0,,Moerstraat ,58.0,9031,Drongen,Oost-vlaanderen,,,,,"Moerstraat , 9031 Drongen, Oost-vlaanderen",51.03584,3.5840494,50.80857666666667,4.424356666666666,Brussels Hoofdstedelijk Gewest
5740.0,,Sportstraat ,,3530,Houthalen-helchteren,Limburg,,,,,"Sportstraat , 3530 Houthalen-helchteren, Limburg",51.0605486,5.3871518,50.8911006845,4.3159104234250005,Brussels Hoofdstedelijk Gewest
5782.0,,Rue ropsy-chaudron,7.0,1070,Brussel,Bruxelles-brussel,,,,,"Rue ropsy-chaudron, 1070 Brussel, Bruxelles-brussel",50.8432123,4.3289915,50.8057082642,4.34485126988,Brussels Hoofdstedelijk Gewest
5791.0,,Gemeenteplaats,1.0,2620,Hemiksem,Antwerpen,,,,,"Gemeenteplaats, 2620 Hemiksem, Antwerpen",51.1442613,4.3460572,50.854948689833336,4.295371379116666,Brussels Hoofdstedelijk Gewest
5792.0,,Rue du mayeur ,25.0,6200,Châtelet,Hainaut,,,,,"Rue du mayeur , 6200 Châtelet, Hainaut",50.4016595,4.523753,50.86955032033333,4.3817530277,Brussels Hoofdstedelijk Gewest
5793.0,,Rue du mayeur,35.0,6200,Châtelet,Hainaut,,,,,"Rue du mayeur, 6200 Châtelet, Hainaut",50.4016595,4.523753,50.8675017785,4.2837047259,Brussels Hoofdstedelijk Gewest
5835.0,,Avenue einstein,4.0,1300,Wavre,Brabant wallon,,,,,"Avenue einstein, 1300 Wavre, Brabant wallon",50.7311726,4.588456,50.792989224,4.374602103349999,Brussels Hoofdstedelijk Gewest
5911.0,,Rue godefroid ,54.0,5000,Namur,Namur,,,,,"Rue godefroid , 5000 Namur, Namur",50.4666085,4.8624974,50.862195,4.3684475,Brussels Hoofdstedelijk Gewest
5913.0,,Place royale,5.0,1000,Bruxelles,Bruxelles-brussel,,,,,"Place royale, 1000 Bruxelles, Bruxelles-brussel",50.8424508,4.3592446,50.81135,4.37363,Brussels Hoofdstedelijk Gewest
5925.0,,Rue cours saint michel,60.0,1040,Bruxelles,Bruxelles-brussel,,,,,"Rue cours saint michel, 1040 Bruxelles, Bruxelles-brussel",50.8385172,4.4003178,50.8723347118,4.3208491034400005,Brussels Hoofdstedelijk Gewest
5931.0,,Ijzer ,55.0,8620,Nieuwpoort,West-vlaanderen,,,,,"Ijzer , 8620 Nieuwpoort, West-vlaanderen",51.1342345,2.7634934,50.898958081,4.3262392115,Brussels Hoofdstedelijk Gewest
5933.0,,Rue du chaufour ,235.0,6181,Gouy-lez-piéton,Hainaut,,,,,"Rue du chaufour , 6181 Gouy-lez-piéton, Hainaut",50.4836817,4.3153519,50.825590574,4.3406448235,Brussels Hoofdstedelijk Gewest
5944.0,,4ème avenue hauts-sarts,75.0,4040,Herstal,Liège,,Y,,,"4ème avenue hauts-sarts, 4040 Herstal, Liège",50.6954403,5.6164976,50.86611500000001,4.42215,Brussels Hoofdstedelijk Gewest
5948.0,,Noorderlaan ,53.0,2030,Antwerpen,Antwerpen,,,,,"Noorderlaan , 2030 Antwerpen, Antwerpen",51.2697864,4.3766281,50.812634687750005,4.355907244875,Brussels Hoofdstedelijk Gewest
6040.0,,Hendrik van gassenstraat ,3.0,9400,Ninove,Oost-vlaanderen,,,,,"Hendrik van gassenstraat , 9400 Ninove, Oost-vlaanderen",50.8145349,3.9737793,50.86594999999999,4.40064,Brussels Hoofdstedelijk Gewest
6051.0,,Chaussée de namur ,55.0,1400,Nivelles,Brabant wallon,,,,,"Chaussée de namur , 1400 Nivelles, Brabant wallon",50.5959308,4.3629573,50.89698333333334,4.37576,Brussels Hoofdstedelijk Gewest
6068.0,,Parc hydrion,,6700,Arlon,Luxembourg,,,,,"Parc hydrion, 6700 Arlon, Luxembourg",49.6829989,5.7998714,50.8425372874,4.41203274284,Brussels Hoofdstedelijk Gewest
6069.0,,Engelsewandeling ,,8500,Kortrijk,West-vlaanderen,,,,,"Engelsewandeling , 8500 Kortrijk, West-vlaanderen",50.8135279,3.2480254,50.8412225,4.40055,Brussels Hoofdstedelijk Gewest
6091.0,,Rue du donjon,,7062,Naast,Hainaut,,,,,"Rue du donjon, 7062 Naast, Hainaut",50.5523958,4.0998369,50.8647683804,4.39373417414,Brussels Hoofdstedelijk Gewest
6094.0,,Zuiderlaan ,4.0,9000,Gent,Oost-vlaanderen,,,,,"Zuiderlaan , 9000 Gent, Oost-vlaanderen",51.0499554,3.6857691,50.8553292238,4.32954791018,Brussels Hoofdstedelijk Gewest
6136.0,,Kattenberg ,19.0,1170,Bruxelles,Bruxelles-brussel,,,,,"Kattenberg , 1170 Bruxelles, Bruxelles-brussel",50.7881573,4.4180065,50.8045425,4.42021,Brussels Hoofdstedelijk Gewest
6158.0,,Rue du marché ,2.0,7100,La,Hainaut,,,,,"Rue du marché , 7100 La, Hainaut",50.4737058,4.1841366,50.83511,4.38885,Brussels Hoofdstedelijk Gewest
6160.0,,Waterstraat ,36.0,9220,Hammeo.-vl.,Oost-vlaanderen,,,,,"Waterstraat , 9220 Hammeo.-vl., Oost-vlaanderen",51.0978359,4.1186512,50.81267207900001,4.4074790662,Brussels Hoofdstedelijk Gewest
6164.0,,Rue emile jeanne ,27.0,4420,Saint-nicolaslg.),Liège,,,,,"Rue emile jeanne , 4420 Saint-nicolaslg.), Liège",50.6338886,5.5191886,50.80369450399999,4.4120298907499995,Brussels Hoofdstedelijk Gewest
6241.0,,Route d eghezée ,,5190,Onoz,Namur,,,,,"Route d eghezée , 5190 Onoz, Namur",50.4738987,4.6720136,50.80309999999999,4.435690000000001,Brussels Hoofdstedelijk Gewest
6271.0,,Rue cyrille bauwens ,45.0,1390,Archennes,Brabant wallon,,,,,"Rue cyrille bauwens , 1390 Archennes, Brabant wallon",50.7742627,4.6501461,50.8740452965,4.3397815749249995,Brussels Hoofdstedelijk Gewest
6340.0,,Kattenberg ,19.0,1170,Brussel,Bruxelles-brussel,,,,,"Kattenberg , 1170 Brussel, Bruxelles-brussel",50.7917162,4.4188877,50.789205474,4.323669570099999,Brussels Hoofdstedelijk Gewest
6374.0,,Rue a. lambert ,17.0,4254,Ligney,Liège,,,,,"Rue a. lambert , 4254 Ligney, Liège",50.662815,5.1848946,50.81164,4.2892,Brussels Hoofdstedelijk Gewest
6415.0,,Route de wallonie ,182.0,7011,Ghlin,Hainaut,,,,,"Route de wallonie , 7011 Ghlin, Hainaut",50.4801984,3.8981241,50.8556648304,4.36935466542,Brussels Hoofdstedelijk Gewest
6426.0,,Veldwijcklaan,180.0,2180,Ekerenantwerpen),Antwerpen,,,,,"Veldwijcklaan, 2180 Ekerenantwerpen), Antwerpen",51.2793271,4.4273199,50.8425,4.44333,Brussels Hoofdstedelijk Gewest
6462.0,,Dries ,,9320,Nieuwerkerkenaalst),Oost-vlaanderen,,,,,"Dries , 9320 Nieuwerkerkenaalst), Oost-vlaanderen",50.9133186,4.0209775,50.83289333333333,4.357833333333334,Brussels Hoofdstedelijk Gewest
6478.0,,Ursulinenstraat ,1.0,3540,Herk-de-stad,Limburg,,,,,"Ursulinenstraat , 3540 Herk-de-stad, Limburg",50.9438565,5.1615484,50.85756276171429,4.3757427625571435,Brussels Hoofdstedelijk Gewest
6484.0,,Rozendaalstraat ,12.0,8900,Ieper,West-vlaanderen,,,,,"Rozendaalstraat , 8900 Ieper, West-vlaanderen",50.8797849,2.8790025,50.878335826,4.4132704661,Brussels Hoofdstedelijk Gewest
6502.0,,Noordlaan ,10.0,9230,Massemen,Oost-vlaanderen,,,,,"Noordlaan , 9230 Massemen, Oost-vlaanderen",51.0008096,3.8664457,50.841666,4.339936,Brussels Hoofdstedelijk Gewest
6542.0,,Rte de warnant ,,4260,Braives,Liège,,,,,"Rte de warnant , 4260 Braives, Liège",50.5886466,5.1954946,50.8282347664,4.40156923464,Brussels Hoofdstedelijk Gewest
6625.0,,Beekje ,25.0,2880,Bornem,Antwerpen,,,,,"Beekje , 2880 Bornem, Antwerpen",51.1016066,4.2672889,50.870269228333335,4.361016693366667,Brussels Hoofdstedelijk Gewest
6674.0,,"Avenue e, mounier )",5.0,1200,Bruxelles,Bruxelles-brussel,,,,,"Avenue e, mounier ), 1200 Bruxelles, Bruxelles-brussel",50.8507765,4.4537123,50.83725328533333,4.285597105833333,Brussels Hoofdstedelijk Gewest
6686.0,,Lambertmontlaan ,322.0,1030,Brussel,Bruxelles-brussel,,,,,"Lambertmontlaan , 1030 Brussel, Bruxelles-brussel",50.8710288,4.3823167,50.84158508475,4.45632972015,Brussels Hoofdstedelijk Gewest
6741.0,,Elegemstraat,160.0,1700,Dilbeek,Vlaams-brabant,,,,,"Elegemstraat, 1700 Dilbeek, Vlaams-brabant",50.858702,4.265133,50.8510059904,4.32051906916,Brussels Hoofdstedelijk Gewest
6789.0,,Quai du rieu ,9.0,7322,Pommeroeul,Hainaut,,,,,"Quai du rieu , 7322 Pommeroeul, Hainaut",50.4595457,3.7134352,50.857860293,4.310278865083333,Brussels Hoofdstedelijk Gewest
6846.0,,Rue orgeo,,6880,Bertrix,Luxembourg,,,,,"Rue orgeo, 6880 Bertrix, Luxembourg",49.8456057,5.2755083,50.838060000000006,4.3328050000000005,Brussels Hoofdstedelijk Gewest
6881.0,,Av. de la cite wauters ,71.0,4040,Herstal,Liège,,,,,"Av. de la cite wauters , 4040 Herstal, Liège",50.6853324,5.640701,50.79385500000001,4.3594100000000005,Brussels Hoofdstedelijk Gewest
6894.0,,Boulevard dolez ),31.0,7000,Mons,Hainaut,,,,,"Boulevard dolez ), 7000 Mons, Hainaut",50.4511566,3.9578662,50.8741888135,4.301435734825,Brussels Hoofdstedelijk Gewest
6904.0,,Rue les croisiers,,4821,Andrimont,Liège,,,,,"Rue les croisiers, 4821 Andrimont, Liège",50.6105954,5.8882329,50.8401693426,4.385041820600001,Brussels Hoofdstedelijk Gewest
6927.0,,Oud termienstraat,8.0,3600,Genk,Limburg,,,,,"Oud termienstraat, 3600 Genk, Limburg",50.9423626,5.4683961,50.83130616349999,4.366342980000001,Brussels Hoofdstedelijk Gewest
6982.0,,Borgueuse he-pont,,4960,Malmédy,Liège,,,,,"Borgueuse he-pont, 4960 Malmédy, Liège",50.3741034,6.0231607,50.819520282,4.362551863949999,Brussels Hoofdstedelijk Gewest
7003.0,,Rue du fort ,1.0,4651,Battice,Liège,,,,,"Rue du fort , 4651 Battice, Liège",50.6451919,5.8374788,50.825308862,4.45670739414,Brussels Hoofdstedelijk Gewest
7037.0,,Rue henri le blond,,6700,Arlon,Luxembourg,,,,,"Rue henri le blond, 6700 Arlon, Luxembourg",49.6864011,5.822418,50.85992127683333,4.319700326533334,Brussels Hoofdstedelijk Gewest
7038.0,,Rue de la misbour,370.0,6637,Fauvillers,Luxembourg,,,,,"Rue de la misbour, 6637 Fauvillers, Luxembourg",49.8467257,5.6625997,50.85708666666667,4.38932,Brussels Hoofdstedelijk Gewest
7053.0,,Kortrijksesteenweg ,,9830,Sint-martens-latem,Oost-vlaanderen,,,,,"Kortrijksesteenweg , 9830 Sint-martens-latem, Oost-vlaanderen",51.0103887,3.6365982,50.836704999999995,4.43088,Brussels Hoofdstedelijk Gewest
7120.0,,Rue des monthys ,,5651,Thy-le-château,Namur,,,,,"Rue des monthys , 5651 Thy-le-château, Namur",50.2916076,4.4269982,50.844126601333336,4.4601003279,Brussels Hoofdstedelijk Gewest
7128.0,,Rue petit dieu,,7911,Oeudeghien,Hainaut,,,,,"Rue petit dieu, 7911 Oeudeghien, Hainaut",50.6750272,3.7151781,50.83064,4.2863725,Brussels Hoofdstedelijk Gewest
7131.0,,Chaussee de neerstalle,,1190,Bruxelles,Bruxelles-brussel,,,,,"Chaussee de neerstalle, 1190 Bruxelles, Bruxelles-brussel",50.80321,4.31592,50.81937830475,4.380330846175,Brussels Hoofdstedelijk Gewest
7132.0,,Rue kelle,31.0,1150,Bruxelles,Bruxelles-brussel,,,,,"Rue kelle, 1150 Bruxelles, Bruxelles-brussel",50.8333897,4.4384038,50.8527493614,4.43948731906,Brussels Hoofdstedelijk Gewest
7144.0,,Rue de la carrière ,,6800,Libramont-chevigny,Luxembourg,,,,,"Rue de la carrière , 6800 Libramont-chevigny, Luxembourg",49.9759551,5.3754551,50.890543048,4.3406551031,Brussels Hoofdstedelijk Gewest
7239.0,,Kattenbroek ,35.0,2650,Edegem,Antwerpen,,,,,"Kattenbroek , 2650 Edegem, Antwerpen",51.14917,4.42853,50.83802938466667,4.355278257866667,Brussels Hoofdstedelijk Gewest
7251.0,,Noordkaai ,9.0,8870,Izegem,West-vlaanderen,,,,,"Noordkaai , 8870 Izegem, West-vlaanderen",50.9277324,3.1934508,50.8625297365,4.410634059416667,Brussels Hoofdstedelijk Gewest
7259.0,,Melbergstraat 16,16.0,3600,Genk,Limburg,,,,,"Melbergstraat 16, 3600 Genk, Limburg",50.9535278,5.4854992,50.87643,4.330495000000001,Brussels Hoofdstedelijk Gewest
7264.0,,Keibergstraat,30.0,8480,Ichtegem,West-vlaanderen,,,,,"Keibergstraat, 8480 Ichtegem, West-vlaanderen",51.0890844,3.0271219,50.869600000000005,4.3331833333333325,Brussels Hoofdstedelijk Gewest
7269.0,,Nieuwstraat,91.0,9100,Sint-niklaas,Oost-vlaanderen,,,,,"Nieuwstraat, 9100 Sint-niklaas, Oost-vlaanderen",51.1621452,4.1367737,50.853870284833334,4.303793796433332,Brussels Hoofdstedelijk Gewest
7284.0,,Lilsedijk ,19.0,2340,Beerse,Antwerpen,,,,,"Lilsedijk , 2340 Beerse, Antwerpen",51.3000202,4.8392918,50.86693954333333,4.3137150757,Brussels Hoofdstedelijk Gewest
7322.0,,Klöcknerstraat ,1.0,3930,Hamont-achel,Limburg,,,,,"Klöcknerstraat , 3930 Hamont-achel, Limburg",51.246237,5.522046,50.8907714402,4.38432643636,Brussels Hoofdstedelijk Gewest
7380.0,,Steenweg op mol,3.0,2360,Oud-turnhout,Antwerpen,,,,,"Steenweg op mol, 2360 Oud-turnhout, Antwerpen",51.3099884,5.0021463,50.83834867316667,4.308991344733333,Brussels Hoofdstedelijk Gewest
7382.0,,Opperstraat,21.0,1770,Liedekerke,Vlaams-brabant,,,,,"Opperstraat, 1770 Liedekerke, Vlaams-brabant",50.8688954,4.0900848,50.8263835735,4.4174284767500005,Brussels Hoofdstedelijk Gewest
7419.0,,Marie curiestraat,24.0,3920,Lommel,Limburg,,,,,"Marie curiestraat, 3920 Lommel, Limburg",51.2161123,5.2829374,50.8383075,4.4448725,Brussels Hoofdstedelijk Gewest
7440.0,,Noorderlaan ,614.0,2030,Antwerpen,Antwerpen,,,,,"Noorderlaan , 2030 Antwerpen, Antwerpen",51.2697864,4.3766281,50.855473421666666,4.4060803463,Brussels Hoofdstedelijk Gewest
7466.0,,Raadsherenstraat ,2.0,2300,Turnhout,Antwerpen,,,,,"Raadsherenstraat , 2300 Turnhout, Antwerpen",51.305315,4.9155114,50.812822,4.334662,Brussels Hoofdstedelijk Gewest
7523.0,,Kruisveld,30.0,1840,Londerzeel,Vlaams-brabant,,,,,"Kruisveld, 1840 Londerzeel, Vlaams-brabant",51.0111946,4.2925898,50.874070335,4.3962430084,Brussels Hoofdstedelijk Gewest
7532.0,,Rue de la barrière ,37.0,7011,Ghlin,Hainaut,,,,,"Rue de la barrière , 7011 Ghlin, Hainaut",50.46551,3.91039,50.82052923,4.285369461966667,Brussels Hoofdstedelijk Gewest
7536.0,,Rue de la clef,41.0,4650,Herve,Liège,,,,,"Rue de la clef, 4650 Herve, Liège",50.6382689,5.7861455,50.86864,4.326036666666666,Brussels Hoofdstedelijk Gewest
7554.0,,Haven 1930 geslecht ,1.0,9130,Doel,Oost-vlaanderen,,,,,"Haven 1930 geslecht , 9130 Doel, Oost-vlaanderen",51.2894883,4.2752659,50.80868,4.30701,Brussels Hoofdstedelijk Gewest
7638.0,,Rue zwartebeek ,23.0,1180,Bruxelles,Bruxelles-brussel,,,,,"Rue zwartebeek , 1180 Bruxelles, Bruxelles-brussel",50.796842,4.3175205,50.89581,4.3926300000000005,Brussels Hoofdstedelijk Gewest
7687.0,,"Rue de velroux, gate",1.0,4460,Bierset,Liège,,,,,"Rue de velroux, gate, 4460 Bierset, Liège",50.6461737,5.4338837,50.898565000000005,4.4259,Brussels Hoofdstedelijk Gewest
7689.0,,Eichenberg ,11.0,4700,Eupen,Liège,,,,,"Eichenberg , 4700 Eupen, Liège",50.624784,6.0503103,50.835225,4.296645000000001,Brussels Hoofdstedelijk Gewest
7706.0,,Rue du port ,10.0,6250,Pont-de-loup,Hainaut,,,,,"Rue du port , 6250 Pont-de-loup, Hainaut",50.4168552,4.5489875,50.85696813766667,4.359285685866667,Brussels Hoofdstedelijk Gewest
7735.0,,Lange kongostr.,21.0,2060,Antwerpen,Antwerpen,,,,,"Lange kongostr., 2060 Antwerpen, Antwerpen",51.2230995,4.4396364,50.86140666666666,4.34117,Brussels Hoofdstedelijk Gewest
7755.0,,Z.i. les plénesses ,73.0,4890,Thimister,Liège,,,,,"Z.i. les plénesses , 4890 Thimister, Liège",50.6329314,5.8675933,50.85917980966667,4.381686831633333,Brussels Hoofdstedelijk Gewest
7761.0,,Rue st-hubert 3,38.0,6730,Tintigny,Luxembourg,,,,,"Rue st-hubert 3, 6730 Tintigny, Luxembourg",49.6492172,5.4975387,50.82926712366666,4.302960509966668,Brussels Hoofdstedelijk Gewest
7775.0,,Rue du peuple ,57.0,7340,Colfontaine,Hainaut,,,,,"Rue du peuple , 7340 Colfontaine, Hainaut",50.4095091,3.8613643,50.8532697792,4.34043209456,Brussels Hoofdstedelijk Gewest
7781.0,,Quai de maastricht,14.0,4000,Liège,Liège,,,,,"Quai de maastricht, 4000 Liège, Liège",50.6465834,5.5842099,50.831370052,4.4442907837500005,Brussels Hoofdstedelijk Gewest
7807.0,,Rue wiertz ,47.0,1047,Bruxelles,Bruxelles-brussel,,,,,"Rue wiertz , 1047 Bruxelles, Bruxelles-brussel",50.8387468,4.3753655,50.81749500000001,4.326435,Brussels Hoofdstedelijk Gewest
7808.0,,Rue de trèves 5 (rdc-local 00m101),2.0,1050,Bruxelles,Bruxelles-brussel,,,,,"Rue de trèves 5 (rdc-local 00m101), 1050 Bruxelles, Bruxelles-brussel",50.8235717,4.3766927,50.90838,4.40655,Brussels Hoofdstedelijk Gewest
7832.0,,Rue wiertz ,60.0,1047,Bruxelles,Bruxelles-brussel,,,,,"Rue wiertz , 1047 Bruxelles, Bruxelles-brussel",50.8387468,4.3753655,50.8596562075,4.333137289775,Brussels Hoofdstedelijk Gewest
7838.0,,Noorderlaan ,500.0,2030,Antwerpen,Antwerpen,,,,,"Noorderlaan , 2030 Antwerpen, Antwerpen",51.2697864,4.3766281,50.79852749999999,4.336614999999999,Brussels Hoofdstedelijk Gewest
7853.0,,P. breugheldreef,4.0,3920,Lommel,Limburg,,,,,"P. breugheldreef, 3920 Lommel, Limburg",51.2167985,5.298356699999999,50.873826666666666,4.404385,Brussels Hoofdstedelijk Gewest
7868.0,,Boomsestwg ,174.0,2610,Wilrijk,Antwerpen,,,,,"Boomsestwg , 2610 Wilrijk, Antwerpen",51.1655137,4.3859424,50.87889195699999,4.3680599524999995,Brussels Hoofdstedelijk Gewest
7888.0,,Watertorenstraat,35.0,2250,Olen,Antwerpen,,,,,"Watertorenstraat, 2250 Olen, Antwerpen",51.1777411,4.8829886,50.85436333333333,4.423573333333334,Brussels Hoofdstedelijk Gewest
7904.0,,Rue f. delcoigne ,39.0,1081,Bruxelles,Bruxelles-brussel,,,,,"Rue f. delcoigne , 1081 Bruxelles, Bruxelles-brussel",50.8592047,4.333062,50.8421897242,4.4215080194,Brussels Hoofdstedelijk Gewest
7941.0,,Place de frasnes ,1.0,6210,Les,Hainaut,Villers,,,,"Place de frasnes , 6210 Les, Hainaut",50.5316526,4.447293,50.797042,4.313661,Brussels Hoofdstedelijk Gewest
8056.0,,Broekstraat ,11.0,2110,Wijnegem,Antwerpen,,,,,"Broekstraat , 2110 Wijnegem, Antwerpen",51.23804,4.52757,50.84319707433334,4.3441323573999995,Brussels Hoofdstedelijk Gewest
8065.0,,Kortrijksestraat ,439.0,8020,Oostkamp,West-vlaanderen,,,,,"Kortrijksestraat , 8020 Oostkamp, West-vlaanderen",51.1081554,3.2218044,50.8824053075,4.346308921625,Brussels Hoofdstedelijk Gewest
8080.0,,Blauwbossen ,20.0,2322,Minderhout,Antwerpen,,,,,"Blauwbossen , 2322 Minderhout, Antwerpen",51.439176,4.8072443,50.86226360783333,4.3646249735,Brussels Hoofdstedelijk Gewest
8114.0,,K. begijnenstr.,18.0,2300,Turnhout,Antwerpen,,,,,"K. begijnenstr., 2300 Turnhout, Antwerpen",51.3248992,4.9472128,50.8557296055,4.399703491250001,Brussels Hoofdstedelijk Gewest
8126.0,,Rue de rotterdam ,1.0,1080,Bruxelles,Bruxelles-brussel,,,,,"Rue de rotterdam , 1080 Bruxelles, Bruxelles-brussel",50.8675189,4.3407964,50.82867613625,4.33614538525,Brussels Hoofdstedelijk Gewest
8138.0,,Doornikserijksweg ,134.0,8510,Bellegem,West-vlaanderen,,,,,"Doornikserijksweg , 8510 Bellegem, West-vlaanderen",50.7627841,3.3105295,50.833203999999995,4.369764,Brussels Hoofdstedelijk Gewest
8159.0,,Gruitroderkiezel ,39.0,3960,Bree,Limburg,,,,,"Gruitroderkiezel , 3960 Bree, Limburg",51.1251654,5.5917174,50.873264,4.383812,Brussels Hoofdstedelijk Gewest
8166.0,,Wilmarsdonkstwg,32.0,2030,Antwerpen,Antwerpen,,,,,"Wilmarsdonkstwg, 2030 Antwerpen, Antwerpen",51.2617454,4.3834358,50.834811560333335,4.345646098733333,Brussels Hoofdstedelijk Gewest
8171.0,,Rue de monin ,30.0,5100,Wépion,Namur,,,,,"Rue de monin , 5100 Wépion, Namur",50.4179496,4.8684172,50.866169293333336,4.377262325833334,Brussels Hoofdstedelijk Gewest
8182.0,,Brug zuid ,12.0,9880,Aalter,Oost-vlaanderen,,,,,"Brug zuid , 9880 Aalter, Oost-vlaanderen",51.1057014,3.4292335,50.779970000000006,4.349559999999999,Brussels Hoofdstedelijk Gewest
8204.0,,Rue des matelots ,70.0,7800,Ath,Hainaut,,,,,"Rue des matelots , 7800 Ath, Hainaut",50.6382829,3.7914149,50.83122779428572,4.310495293228571,Brussels Hoofdstedelijk Gewest
8236.0,,Rue du monténégro ,159.0,1190,Bruxelles,Bruxelles-brussel,,,,,"Rue du monténégro , 1190 Bruxelles, Bruxelles-brussel",50.8267462,4.3344935,50.8457905675,4.304838924949999,Brussels Hoofdstedelijk Gewest
8257.0,,Rue des chasseurs ardennais ,6.0,4031,Angleur,Liège,,,,,"Rue des chasseurs ardennais , 4031 Angleur, Liège",50.5987404,5.5652936,50.871434580333336,4.3441362526,Brussels Hoofdstedelijk Gewest
8278.0,,Kauwenstein,4.0,2000,Antwerpen,Antwerpen,,,,,"Kauwenstein, 2000 Antwerpen, Antwerpen",51.2772824,4.3324851,50.8209408494,4.40714472476,Brussels Hoofdstedelijk Gewest
8330.0,,Kapellestraat ,136.0,2630,Aartselaar,Antwerpen,,,,,"Kapellestraat , 2630 Aartselaar, Antwerpen",51.1292779,4.3903485,50.81172500000001,4.3663549999999995,Brussels Hoofdstedelijk Gewest
8339.0,,Rue de maestricht,65.0,4600,Visé,Liège,,,,,"Rue de maestricht, 4600 Visé, Liège",50.7452807,5.702314,50.82799462025,4.39135218965,Brussels Hoofdstedelijk Gewest
8342.0,,Rue de bastogne,394.0,6700,Arlon,Luxembourg,,,,,"Rue de bastogne, 6700 Arlon, Luxembourg",49.6904177,5.8110141,50.83857,4.32138,Brussels Hoofdstedelijk Gewest
8370.0,,Hillstrasse ,7.0,4700,Eupen,Liège,,,,,"Hillstrasse , 4700 Eupen, Liège",50.6213286,6.0407289,50.830265,4.459735,Brussels Hoofdstedelijk Gewest
8377.0,,Clos de l harmonie,7.0,6530,Thuin,Hainaut,,,,,"Clos de l harmonie, 6530 Thuin, Hainaut",50.33603799999999,4.2957697,50.83157079266667,4.2927003858,Brussels Hoofdstedelijk Gewest
8409.0,,Vergunningenstraat,6.0,8400,Oostende,West-vlaanderen,,,,,"Vergunningenstraat, 8400 Oostende, West-vlaanderen",51.221207,2.9442644,50.861511888,4.3037369963800005,Brussels Hoofdstedelijk Gewest
8415.0,,Rue d arlon ,80.0,1040,Bruxelles,Bruxelles-brussel,,,,,"Rue d arlon , 1040 Bruxelles, Bruxelles-brussel",50.8414337,4.3732362,50.81549333333333,4.38945,Brussels Hoofdstedelijk Gewest
8422.0,,Lindebosstraat,2.0,3990,Peer,Limburg,,Y,,,"Lindebosstraat, 3990 Peer, Limburg",51.0849664,5.4341773,50.845650000000006,4.33066,Brussels Hoofdstedelijk Gewest
8439.0,,"Domaine de banalbois, bras ",270.0,6870,Saint-hubert,Luxembourg,,Y,,,"Domaine de banalbois, bras , 6870 Saint-hubert, Luxembourg",49.9800511,5.3274143,50.79789107366667,4.417742010433333,Brussels Hoofdstedelijk Gewest
8455.0,,Rue marie-christine ,83.0,1020,Bruxelles,Bruxelles-brussel,,Y,,,"Rue marie-christine , 1020 Bruxelles, Bruxelles-brussel",50.8754797,4.3538613,50.83953281525,4.369208645675,Brussels Hoofdstedelijk Gewest
8506.0,,Kiezelweg ,181.0,2400,Mol,Antwerpen,,Y,,,"Kiezelweg , 2400 Mol, Antwerpen",51.2151536,5.1906737,50.842659006999995,4.3164013069,Brussels Hoofdstedelijk Gewest
8534.0,,Jennerstraat,13.0,1000,Brussel,Bruxelles-brussel,,Y,,,"Jennerstraat, 1000 Brussel, Bruxelles-brussel",50.8360622,4.3786939,50.838420181500005,4.3024546626,Brussels Hoofdstedelijk Gewest
8570.0,,Place de brouckère,38.0,1000,Bruxelles,Bruxelles-brussel,,Y,,,"Place de brouckère, 1000 Bruxelles, Bruxelles-brussel",50.8512113,4.3528872,50.859205725399995,4.353498033419999,Brussels Hoofdstedelijk Gewest
8573.0,,Abelbergpark,2.0,3920,Lommel,Limburg,,Y,,,"Abelbergpark, 3920 Lommel, Limburg",51.2167985,5.298356699999999,50.80611934766667,4.433839084666666,Brussels Hoofdstedelijk Gewest
8584.0,,Rue daxhelet ,17.0,6180,Souvret,Hainaut,,Y,,,"Rue daxhelet , 6180 Souvret, Hainaut",50.441574,4.3453243,50.84862999999999,4.44961,Brussels Hoofdstedelijk Gewest
8590.0,,Rue belliard,40.0,1040,Bruxelles,Bruxelles-brussel,,Y,,,"Rue belliard, 1040 Bruxelles, Bruxelles-brussel",50.8409653,4.3758252,50.87400978266667,4.311093064033334,Brussels Hoofdstedelijk Gewest
8624.0,,Willemdok ,4.0,2000,Antwerpen,Antwerpen,,Y,,,"Willemdok , 2000 Antwerpen, Antwerpen",51.2284736,4.4057268,50.82098333333334,4.296383333333333,Brussels Hoofdstedelijk Gewest
8640.0,,Plateau d hastedon ,,5002,Saint-servais,Namur,,Y,,,"Plateau d hastedon , 5002 Saint-servais, Namur",50.4805334,4.8416154,50.825807826,4.351538594100001,Brussels Hoofdstedelijk Gewest
8650.0,,Rue de molenbeek ,72.0,1020,Bruxelles,Bruxelles-brussel,,Y,,,"Rue de molenbeek , 1020 Bruxelles, Bruxelles-brussel",50.8735928,4.3532047,50.88791273700001,4.423983550199999,Brussels Hoofdstedelijk Gewest
8656.0,,Vliegtuiglaan,8.0,9000,Gent,Oost-vlaanderen,,Y,,,"Vliegtuiglaan, 9000 Gent, Oost-vlaanderen",51.0747995,3.7429262,50.86427028366666,4.310842685333333,Brussels Hoofdstedelijk Gewest
8680.0,,Rue grande ,100.0,6780,Messancy,Luxembourg,,Y,,,"Rue grande , 6780 Messancy, Luxembourg",49.6216258,5.8214036,50.8460932445,4.428576356225,Brussels Hoofdstedelijk Gewest
8681.0,,Route de liers,121.0,4041,Milmort,Liège,,Y,,,"Route de liers, 4041 Milmort, Liège",50.6890552,5.5824808,50.8117167915,4.393022804575001,Brussels Hoofdstedelijk Gewest
8700.0,,Venecoweg ,20.0,8560,Moorsele,West-vlaanderen,,Y,,,"Venecoweg , 8560 Moorsele, West-vlaanderen",50.8405959,3.1646335,50.7895425,4.421375,Brussels Hoofdstedelijk Gewest
8701.0,,Woestijnstraat ,53.0,9140,Temse,Oost-vlaanderen,,Y,,,"Woestijnstraat , 9140 Temse, Oost-vlaanderen",51.09237,4.2720083,50.825516830249995,4.3297487297499995,Brussels Hoofdstedelijk Gewest
8704.0,,Daalbroekstraat ,106.0,3620,Lanaken,Limburg,,Y,,,"Daalbroekstraat , 3620 Lanaken, Limburg",50.9241621,5.6521478,50.845335,4.348485,Brussels Hoofdstedelijk Gewest
8711.0,,Keizersplein ,21.0,9300,Aalst,Oost-vlaanderen,,Y,,,"Keizersplein , 9300 Aalst, Oost-vlaanderen",50.9367469,4.0361639,50.852774243599995,4.32668028416,Brussels Hoofdstedelijk Gewest
8739.0,,Rue feher ,19.0,6041,Gosselies,Hainaut,,Y,,,"Rue feher , 6041 Gosselies, Hainaut",50.4687201,4.431955900000001,50.807224684,4.3282340089,Brussels Hoofdstedelijk Gewest
8746.0,,Oude markt,28.0,3320,Hoegaarden,Vlaams-brabant,,Y,,,"Oude markt, 3320 Hoegaarden, Vlaams-brabant",50.78064879999999,4.8685676,50.8657916608,4.29771124198,Brussels Hoofdstedelijk Gewest
8749.0,,Rue de fiennes,52.0,1070,Bruxelles,Bruxelles-brussel,,Y,,,"Rue de fiennes, 1070 Bruxelles, Bruxelles-brussel",50.8390624,4.3331803,50.889058995666666,4.338220048,Brussels Hoofdstedelijk Gewest
8766.0,,Industrieweg ,38.0,9255,Buggenhout,Oost-vlaanderen,,Y,,,"Industrieweg , 9255 Buggenhout, Oost-vlaanderen",51.0310272,4.1411878,50.8325866575,4.38263358795,Brussels Hoofdstedelijk Gewest
8792.0,,Rozendreef ,190.0,9300,Aalst,Oost-vlaanderen,,Y,,,"Rozendreef , 9300 Aalst, Oost-vlaanderen",50.9519397,4.0702164,50.848321359500005,4.4128905251,Brussels Hoofdstedelijk Gewest
8796.0,,Lenniksebaan ,1479.0,1602,Vlezenbeek,Vlaams-brabant,,Y,,,"Lenniksebaan , 1602 Vlezenbeek, Vlaams-brabant",50.8176976,4.2451583,50.86900182433334,4.3393581799,Brussels Hoofdstedelijk Gewest
8883.0,,Havenlaan ,88.0,9070,Destelbergen,Oost-vlaanderen,,Y,,,"Havenlaan , 9070 Destelbergen, Oost-vlaanderen",51.2059637,3.8072965,50.89588002,4.3628632955999995,Brussels Hoofdstedelijk Gewest
8894.0,,Bremheidelaan,2.0,2300,Turnhout,Antwerpen,,Y,,,"Bremheidelaan, 2300 Turnhout, Antwerpen",51.292278,4.9194547,50.87822,4.43195,Brussels Hoofdstedelijk Gewest
8952.0,,Rue de visé,81.0,1932,Sint-stevens-woluwe,Vlaams-brabant,,Y,,,"Rue de visé, 1932 Sint-stevens-woluwe, Vlaams-brabant",50.8691316,4.450322799999999,50.827749999999995,4.43192,Brussels Hoofdstedelijk Gewest
8962.0,,Rue du cheslé ,25.0,5620,Florennes,Namur,,Y,,,"Rue du cheslé , 5620 Florennes, Namur",50.2493415,4.5950405,50.851617858800005,4.3847463091800005,Brussels Hoofdstedelijk Gewest
9014.0,,Rue de la gare ,64.0,4610,Beyne-heusay,Liège,,Y,,,"Rue de la gare , 4610 Beyne-heusay, Liège",50.6205298,5.6490019,50.89203,4.37754,Brussels Hoofdstedelijk Gewest
9156.0,,Boomsesteenweg,510.0,2020,Antwerpen,Antwerpen,,Y,,,"Boomsesteenweg, 2020 Antwerpen, Antwerpen",51.18265,4.38973,50.829050256,4.282728085099999,Brussels Hoofdstedelijk Gewest
9158.0,,Rue théophile delbar,8.0,1410,Waterloo,Brabant wallon,,Y,,,"Rue théophile delbar, 1410 Waterloo, Brabant wallon",50.7166378,4.3968189,50.8296667636,4.33970511522,Brussels Hoofdstedelijk Gewest
9166.0,,Werkhovensestraat,2.0,2320,Hoogstraten,Antwerpen,,Y,,,"Werkhovensestraat, 2320 Hoogstraten, Antwerpen",51.450545,4.7298906,50.84317,4.416359999999999,Brussels Hoofdstedelijk Gewest
9174.0,,Rue de verviers,89.0,4700,Eupen,Liège,,Y,,,"Rue de verviers, 4700 Eupen, Liège",50.6319882,6.019218,50.832931796,4.3308271077,Brussels Hoofdstedelijk Gewest
9178.0,,Rue des martyrs,13.0,6700,Arlon,Luxembourg,,Y,,,"Rue des martyrs, 6700 Arlon, Luxembourg",49.6834749,5.8091822,50.847006254,4.338498073525001,Brussels Hoofdstedelijk Gewest
9206.0,,Kampstraat/  binnenweg,,3640,Kinrooi,Limburg,,Y,,,"Kampstraat/  binnenweg, 3640 Kinrooi, Limburg",51.1479588,5.7316405,50.865135483500005,4.389936499725,Brussels Hoofdstedelijk Gewest
9225.0,,Chaussée d enghien,225.0,6220,Fleurus,Hainaut,,Y,,,"Chaussée d enghien, 6220 Fleurus, Hainaut",50.4771076,4.5363885,50.8433255475,4.3900396413000005,Brussels Hoofdstedelijk Gewest
9233.0,,Avenue thomas edison,32.0,1402,Thines,Brabant wallon,,Y,,,"Avenue thomas edison, 1402 Thines, Brabant wallon",50.5789766,4.3595288,50.86418,4.351899999999999,Brussels Hoofdstedelijk Gewest
9287.0,,Rue de nivelles ,,1300,Wavre,Brabant wallon,,Y,,,"Rue de nivelles , 1300 Wavre, Brabant wallon",50.7145279,4.6073918,50.84583333333333,4.373936666666667,Brussels Hoofdstedelijk Gewest
9288.0,,Rue mazy ,173.0,5100,Jambes,Namur,,Y,,,"Rue mazy , 5100 Jambes, Namur",50.4614296,4.8743533,50.849090887,4.4224717902599995,Brussels Hoofdstedelijk Gewest
9310.0,,Koning albertlaan,181.0,1120,Brussel,Bruxelles-brussel,,Y,,,"Koning albertlaan, 1120 Brussel, Bruxelles-brussel",50.8937025,4.3749765,50.802535285999994,4.37179427685,Brussels Hoofdstedelijk Gewest
9354.0,,Luchthaven nationaal,1.0,1930,Zaventem,Vlaams-brabant,,Y,,,"Luchthaven nationaal, 1930 Zaventem, Vlaams-brabant",50.87950240000001,4.4826212,50.7981578425,4.3925083349000005,Brussels Hoofdstedelijk Gewest
9361.0,,Koninginnenlaan ,48.0,3630,Maasmechelen,Limburg,,Y,,,"Koninginnenlaan , 3630 Maasmechelen, Limburg",50.9893593,5.6982069,50.825852408,4.34446880822,Brussels Hoofdstedelijk Gewest
9370.0,,Rue des hottées,6.0,6760,Virton,Luxembourg,,Y,,,"Rue des hottées, 6760 Virton, Luxembourg",49.5657019,5.5325438,50.79346613725,4.330291249225,Brussels Hoofdstedelijk Gewest
9440.0,,Graaf karel de goedelaan,7.0,8500,Kortrijk,West-vlaanderen,,Y,,,"Graaf karel de goedelaan, 8500 Kortrijk, West-vlaanderen",50.8247245,3.2513627,50.80616666666667,4.314086666666666,Brussels Hoofdstedelijk Gewest
9456.0,,Bergensesteenweg,436.0,1500,Halle,Vlaams-brabant,,,,,"Bergensesteenweg, 1500 Halle, Vlaams-brabant",50.7508808,4.2459113,50.85504260166667,4.379098831533334,Brussels Hoofdstedelijk Gewest
9458.0,,Tragel,12.0,9300,Aalst,Oost-vlaanderen,,,,,"Tragel, 9300 Aalst, Oost-vlaanderen",50.950398,4.0366405,50.8610925,4.4014575,Brussels Hoofdstedelijk Gewest
9481.0,,Zilvermeerlaan,9.0,2400,Mol,Antwerpen,,,,,"Zilvermeerlaan, 2400 Mol, Antwerpen",51.226311,5.1708275,50.87883,4.38599,Brussels Hoofdstedelijk Gewest
9499.0,,Gentse steenweg,136.0,9160,Lokeren,Oost-vlaanderen,,,,,"Gentse steenweg, 9160 Lokeren, Oost-vlaanderen",51.1127637,3.9367355,50.796192485000006,4.34497359865,Brussels Hoofdstedelijk Gewest
9523.0,,Bogaardestraat ,228.0,9990,Maldegem,Oost-vlaanderen,,,,,"Bogaardestraat , 9990 Maldegem, Oost-vlaanderen",51.2036049,3.4350488,50.847233593,4.4062278563,Brussels Hoofdstedelijk Gewest
9529.0,,Dorpstraat ,146.0,9420,Erpe,Oost-vlaanderen,,,,,"Dorpstraat , 9420 Erpe, Oost-vlaanderen",50.9364621,3.9818836,50.87679060566666,4.359590949399999,Brussels Hoofdstedelijk Gewest
9571.0,,Place communale,9.0,6800,Libramont-chevigny,Luxembourg,,,,,"Place communale, 6800 Libramont-chevigny, Luxembourg",49.9150063,5.3753421,50.85088759722222,4.350824280277778,Brussels Hoofdstedelijk Gewest
9572.0,,Priemstraat,57.0,1000,Brussel,Bruxelles-brussel,,,,,"Priemstraat, 1000 Brussel, Bruxelles-brussel",50.8426774,4.3485424,50.8617775,4.4158525,Brussels Hoofdstedelijk Gewest
9594.0,,Sint-sebastiaanstraat ,14.0,1630,Linkebeek,Vlaams-brabant,,,,,"Sint-sebastiaanstraat , 1630 Linkebeek, Vlaams-brabant",50.7724846,4.3348589,50.874923503,4.3748063866999995,Brussels Hoofdstedelijk Gewest
9634.0,,Kwekerijstraat,82.0,2140,Borgerhout,Antwerpen,,,,,"Kwekerijstraat, 2140 Borgerhout, Antwerpen",51.2204046,4.441837,50.81278,4.380895000000001,Brussels Hoofdstedelijk Gewest
9646.0,,Vandenpeereboomstraat,1.0,1500,Halle,Vlaams-brabant,,,,,"Vandenpeereboomstraat, 1500 Halle, Vlaams-brabant",50.7359138,4.2440178,50.874679209142855,4.412528893999999,Brussels Hoofdstedelijk Gewest
9712.0,,Polderdijkweg,3.0,2030,Antwerpen,Antwerpen,,,,,"Polderdijkweg, 2030 Antwerpen, Antwerpen",51.2637792,4.3425698,50.833573349333335,4.420418915833333,Brussels Hoofdstedelijk Gewest
9714.0,,Polderdijkweg,3.0,2030,Antwerpen,Antwerpen,,,,,"Polderdijkweg, 2030 Antwerpen, Antwerpen",51.2637792,4.3425698,50.85883754225,4.34442733105,Brussels Hoofdstedelijk Gewest
9763.0,,Avenue de la faculté,2.0,5030,Gembloux,Namur,,Y,,,"Avenue de la faculté, 5030 Gembloux, Namur",50.5651167,4.696261,50.852572,4.331478,Brussels Hoofdstedelijk Gewest
9798.0,,Vlaschaardlaan,89.0,8880,Ledegem,West-vlaanderen,,,,,"Vlaschaardlaan, 8880 Ledegem, West-vlaanderen",50.8714149,3.1785172,50.8778208835,4.34745599505,Brussels Hoofdstedelijk Gewest
9860.0,,Gareelmakersstraat,23.0,2200,Herentals,Antwerpen,,,,,"Gareelmakersstraat, 2200 Herentals, Antwerpen",51.1773604,4.8522037,50.83756,4.36023,Brussels Hoofdstedelijk Gewest
9893.0,,Quai mativa,43.0,4020,Liège,Liège,,,,,"Quai mativa, 4020 Liège, Liège",50.6262422,5.5796175,50.83852052100001,4.41082931922,Brussels Hoofdstedelijk Gewest
9918.0,,Route du lac de warfa,,4845,Jalhay,Liège,,,,,"Route du lac de warfa, 4845 Jalhay, Liège",50.5084345,5.9044784,50.86704,4.287974999999999,Brussels Hoofdstedelijk Gewest
9921.0,,Rue dubois-thon,103.0,1080,Bruxelles,Bruxelles-brussel,,,,,"Rue dubois-thon, 1080 Bruxelles, Bruxelles-brussel",50.8525194,4.3143183,50.8520763802,4.31543527354,Brussels Hoofdstedelijk Gewest
9936.0,,Rue des colonies,1.0,1000,Bruxelles,Bruxelles-brussel,,,,,"Rue des colonies, 1000 Bruxelles, Bruxelles-brussel",50.8468614,4.3602903,50.845823333333335,4.357493333333333,Brussels Hoofdstedelijk Gewest
9965.0,,Bvd du jardin botanique,15.0,1000,Bruxelles,Bruxelles-brussel,,,,,"Bvd du jardin botanique, 1000 Bruxelles, Bruxelles-brussel",50.8546109,4.3606333,50.81436875,4.33846625,Brussels Hoofdstedelijk Gewest
9995.0,,André dumontlaan,129.0,3600,Genk,Limburg,,,,,"André dumontlaan, 3600 Genk, Limburg",50.9920941,5.5351747,50.82579378799999,4.2898221671,Brussels Hoofdstedelijk Gewest
10039.0,,Kerkstraat,23.0,2330,Merksplas,Antwerpen,,,,,"Kerkstraat, 2330 Merksplas, Antwerpen",51.3599001,4.8633434,50.857706666666665,4.324936666666667,Brussels Hoofdstedelijk Gewest
10084.0,,Rue joncquois,116.0,7000,Mons,Hainaut,,,,,"Rue joncquois, 7000 Mons, Hainaut",50.4444161,3.9531139,50.8686938365,4.3101252582,Brussels Hoofdstedelijk Gewest
10092.0,,Jan van hembysebolwerk,6.0,9000,Gent,Oost-vlaanderen,,,,,"Jan van hembysebolwerk, 9000 Gent, Oost-vlaanderen",51.0565667,3.7080566,50.882335596333334,4.3381125702666665,Brussels Hoofdstedelijk Gewest
10107.0,,Rue de clairvaux,40.0,1348,Louvain-la-neuve,Brabant wallon,,,,,"Rue de clairvaux, 1348 Louvain-la-neuve, Brabant wallon",50.6770158,4.6193598,50.834011278599995,4.34021931804,Brussels Hoofdstedelijk Gewest
10124.0,,Ruiterijschool,9.0,2930,Brasschaat,Antwerpen,,Y,,,"Ruiterijschool, 2930 Brasschaat, Antwerpen",51.3280751,4.5307072,50.8402877342,4.3427664973399995,Brussels Hoofdstedelijk Gewest
10125.0,,Maaltemeers,5.0,9052,Zwijnaarde,Oost-vlaanderen,,,,,"Maaltemeers, 9052 Zwijnaarde, Oost-vlaanderen",51.0184778,3.7012354,50.81579889,4.371740505166667,Brussels Hoofdstedelijk Gewest
10143.0,,Chaussée de wavre,45.0,1360,Perwez,Brabant wallon,,,,,"Chaussée de wavre, 1360 Perwez, Brabant wallon",50.6342762,4.7873904,50.825676666666666,4.365566666666667,Brussels Hoofdstedelijk Gewest
10144.0,,Rue pirmez,1.0,6060,Gilly,Hainaut,,,,,"Rue pirmez, 6060 Gilly, Hainaut",50.437684,4.4776188,50.822130056,4.350921713266667,Brussels Hoofdstedelijk Gewest
10149.0,,Kwalestraat ,154.0,9320,Aalst,Oost-vlaanderen,,,,,"Kwalestraat , 9320 Aalst, Oost-vlaanderen",50.928299,4.014838,50.831826666666664,4.415673333333333,Brussels Hoofdstedelijk Gewest
10150.0,,Van de wervestraat,66.0,2060,Antwerpen,Antwerpen,,,,,"Van de wervestraat, 2060 Antwerpen, Antwerpen",51.2278481,4.4159616,50.8513961196,4.375737657899999,Brussels Hoofdstedelijk Gewest
10183.0,,Avenue zénobe gramme,36.0,1300,Wavre,Brabant wallon,,,,,"Avenue zénobe gramme, 1300 Wavre, Brabant wallon",50.7342522,4.5795639,50.8511730782,4.299924889,Brussels Hoofdstedelijk Gewest
10189.0,,Chemin d’oultre-heure,20.0,6120,Ham-sur-heure,Hainaut,,,,,"Chemin d’oultre-heure, 6120 Ham-sur-heure, Hainaut",50.32212029999999,4.3880774,50.887270159,4.31980648086,Brussels Hoofdstedelijk Gewest
10194.0,,Rue d henripont,145.0,7090,Braine-le-comte,Hainaut,HALL ECOLE (près direction),,Oui-Ja,,"Rue d henripont, 7090 Braine-le-comte, Hainaut",50.6029319,4.2029278,50.86556483133333,4.357838723466666,Brussels Hoofdstedelijk Gewest
10205.0,,Rue joseph dupont,73.0,4053,Chaudefontaine,Liège,,,,,"Rue joseph dupont, 4053 Chaudefontaine, Liège",50.6007881,5.6075913,50.857975664,4.305933254566667,Brussels Hoofdstedelijk Gewest
10215.0,,Kardinaal mercierlaan,46.0,3001,Heverlee,Vlaams-brabant,,,,,"Kardinaal mercierlaan, 3001 Heverlee, Vlaams-brabant",50.8662448,4.6943356,50.834678,4.314234,Brussels Hoofdstedelijk Gewest
10222.0,,Vaartstraat,90.0,9270,Kalken,Oost-vlaanderen,,y,,,"Vaartstraat, 9270 Kalken, Oost-vlaanderen",51.0339793,3.9120625,50.852175108666664,4.395372863466666,Brussels Hoofdstedelijk Gewest
10236.0,,Boulevard baudoin 1er,25.0,1348,Louvain-la-neuve,Brabant wallon,,y,,,"Boulevard baudoin 1er, 1348 Louvain-la-neuve, Brabant wallon",50.6643019,4.6208345,50.809034868666664,4.334077264033334,Brussels Hoofdstedelijk Gewest
10325.0,,Poortakkerstraat,7.0,9051,Gent,Oost-vlaanderen,,Y,,,"Poortakkerstraat, 9051 Gent, Oost-vlaanderen",51.0272083,3.6851527,50.8412480354,4.33372222556,Brussels Hoofdstedelijk Gewest
10339.0,,Rue des sources,11.0,6220,Fleurus,Hainaut,,Y,,,"Rue des sources, 6220 Fleurus, Hainaut",50.4620963,4.5294261,50.83460544,4.3990628164,Brussels Hoofdstedelijk Gewest
10377.0,,Rue de brigniot,205.0,5002,Saint-servais,Namur,,Y,,,"Rue de brigniot, 5002 Saint-servais, Namur",50.4818182,4.8266295,50.880195,4.318585000000001,Brussels Hoofdstedelijk Gewest
10388.0,,Rue de brigniot,205.0,5002,Saint-servais,Namur,,Y,,,"Rue de brigniot, 5002 Saint-servais, Namur",50.4818182,4.8266295,50.82378,4.401770000000001,Brussels Hoofdstedelijk Gewest
10397.0,,Avenue de l astronomie,30.0,1210,Bruxelles,Bruxelles-brussel,,Y,,,"Avenue de l astronomie, 1210 Bruxelles, Bruxelles-brussel",50.8509179,4.3689028,50.85522758075,4.41582853395,Brussels Hoofdstedelijk Gewest
10416.0,,Scheldelaan,460.0,2040,Antwerpen,Antwerpen,,Y,,,"Scheldelaan, 2040 Antwerpen, Antwerpen",51.3346728,4.2832375,50.83154494957142,4.349312621614286,Brussels Hoofdstedelijk Gewest
10436.0,,Rue de la fabrique,,5190,Jemeppe-sur-sambre,Namur,,Y,,,"Rue de la fabrique, 5190 Jemeppe-sur-sambre, Namur",50.4552037,4.6910957,50.833952171625,4.3787579799375,Brussels Hoofdstedelijk Gewest
10463.0,,Rue de l avenir,10.0,4530,Vilers-le-bouillet,Liège,,Y,,,"Rue de l avenir, 4530 Vilers-le-bouillet, Liège",50.5829908,5.2664934,50.84014760125,4.46389472,Brussels Hoofdstedelijk Gewest
10473.0,,Souwveld,4.0,3740,Rijkhoven,Limburg,,Y,,,"Souwveld, 3740 Rijkhoven, Limburg",50.8369098,5.5149899,50.805955,4.386925,Brussels Hoofdstedelijk Gewest
10500.0,,Place de la monnaie,5.0,1000,Bruxelles,Bruxelles-brussel,,Y,,,"Place de la monnaie, 1000 Bruxelles, Bruxelles-brussel",50.8499843,4.353272,50.866996666666665,4.404013333333333,Brussels Hoofdstedelijk Gewest
10523.0,,Grand rue,64.0,6791,Athus,Luxembourg,,Y,,,"Grand rue, 6791 Athus, Luxembourg",49.5629091,5.8339237,50.897,4.344399999999999,Brussels Hoofdstedelijk Gewest
10561.0,,Meersbloem-melden ,42.0,9700,Bevere,Oost-vlaanderen,,Y,,,"Meersbloem-melden , 9700 Bevere, Oost-vlaanderen",50.83053,3.5912,50.89689903525,4.3727504164,Brussels Hoofdstedelijk Gewest
10588.0,,Kartuizersweg,1.0,2550,Kontich,Antwerpen,,y,,,"Kartuizersweg, 2550 Kontich, Antwerpen",51.1245835,4.4214531,50.871276097,4.420513388549999,Brussels Hoofdstedelijk Gewest
10590.0,,Bijkhoevelaan,6.0,2110,Wijnegem,Antwerpen,,y,,,"Bijkhoevelaan, 2110 Wijnegem, Antwerpen",51.2315849,4.4947108,50.862245,4.3281475,Brussels Hoofdstedelijk Gewest
10613.0,,Keer der vlamingenstraat,6.0,8500,Kortrijk,West-vlaanderen,,y,,,"Keer der vlamingenstraat, 8500 Kortrijk, West-vlaanderen",50.824946,3.2698,50.821304999999995,4.410415,Brussels Hoofdstedelijk Gewest
10631.0,,Telecomlaan,,1831,Diegem,Vlaams-brabant,,y,,,"Telecomlaan, 1831 Diegem, Vlaams-brabant",50.8832878,4.4404832,50.895715739,4.3996724837,Brussels Hoofdstedelijk Gewest
10644.0,,Neervelpsestraat,15.0,3870,Boutersem,Limburg,,y,,,"Neervelpsestraat, 3870 Boutersem, Limburg",50.7560332,5.3132164,50.82471,4.38173,Brussels Hoofdstedelijk Gewest
10647.0,,Avenue sergent vrithoff,2.0,5000,Namur,Namur,,y,,,"Avenue sergent vrithoff, 5000 Namur, Namur",50.4664425,4.8450569,50.834489999999995,4.323876666666667,Brussels Hoofdstedelijk Gewest
10648.0,,Nekkerspoel-borght,9999.0,2800,Mechelen,Antwerpen,,y,,,"Nekkerspoel-borght, 2800 Mechelen, Antwerpen",51.0308711,4.4797091,50.82642769600001,4.4491736408000016,Brussels Hoofdstedelijk Gewest
10650.0,,Rue de la  chaudronnerie,6.0,4340,Awans,Liège,,y,,,"Rue de la  chaudronnerie, 4340 Awans, Liège",50.6762414,5.4755883,50.8663,4.3719866666666665,Brussels Hoofdstedelijk Gewest
10658.0,,Rue du brief,67.0,4652,Herve,Liège,,y,,,"Rue du brief, 4652 Herve, Liège",50.60309280000001,5.771910999999999,50.800555,4.328725,Brussels Hoofdstedelijk Gewest
10701.0,,Leuvensesteenweg,510.0,1930,Zaventem,Vlaams-brabant,,Y,,,"Leuvensesteenweg, 1930 Zaventem, Vlaams-brabant",50.8740713,4.4881282,50.83703059642857,4.348848393542857,Brussels Hoofdstedelijk Gewest
10731.0,,Square du sacré-cœur,2.0,1160,Bruxelles,Bruxelles-brussel,,Y,,,"Square du sacré-cœur, 1160 Bruxelles, Bruxelles-brussel",50.8100037,4.4360523,50.88099,4.40668,Brussels Hoofdstedelijk Gewest
10748.0,,Rue des frères wright ,8.0,6041,Gosselies,Hainaut,,Y,,,"Rue des frères wright , 6041 Gosselies, Hainaut",50.4697049,4.4689505,50.85903,4.316115,Brussels Hoofdstedelijk Gewest
10771.0,,Chaussée de wavre ,1179.0,1160,Bruxelles,Bruxelles-brussel,,Y,,,"Chaussée de wavre , 1160 Bruxelles, Bruxelles-brussel",50.821486,4.4066304,50.813135,4.40174,Brussels Hoofdstedelijk Gewest
10790.0,,Industriepark ,1.0,2220,Heist-op-den-berg,Antwerpen,,Y,,,"Industriepark , 2220 Heist-op-den-berg, Antwerpen",51.082575,4.8036743,50.8841025765,4.3336800271,Brussels Hoofdstedelijk Gewest
10791.0,,Industriepark ,1.0,2220,Heist-op-den-berg,Antwerpen,,Y,,,"Industriepark , 2220 Heist-op-den-berg, Antwerpen",51.082575,4.8036743,50.84046090383333,4.41532771335,Brussels Hoofdstedelijk Gewest
10793.0,,Maantjessteenweg,143.0,2170,Antwerpen,Antwerpen,,Y,,,"Maantjessteenweg, 2170 Antwerpen, Antwerpen",51.2550413,4.4414298,50.79451343366667,4.321203729133333,Brussels Hoofdstedelijk Gewest
10798.0,,Hovestraat ,48.0,2650,Edegem,Antwerpen,,Y,,,"Hovestraat , 2650 Edegem, Antwerpen",51.1559301,4.452835,50.82382925,4.3888795946000005,Brussels Hoofdstedelijk Gewest
10813.0,,Avenue roi albert,17.0,5300,Andenne,Namur,,Y,,,"Avenue roi albert, 5300 Andenne, Namur",50.4933662,5.1057982,50.8482610615,4.43859799715,Brussels Hoofdstedelijk Gewest
10819.0,,Schaluin,28.0,3200,Aarschot,Vlaams-brabant,,Y,,,"Schaluin, 3200 Aarschot, Vlaams-brabant",50.9900079,4.8407185,50.841700664,4.427314194400001,Brussels Hoofdstedelijk Gewest
10830.0,,Velmerlaan,253.0,3800,Sint-truiden,Limburg,,Y,,,"Velmerlaan, 3800 Sint-truiden, Limburg",50.7873072,5.1397269,50.89504747933333,4.386007657733333,Brussels Hoofdstedelijk Gewest
10841.0,,Rue les grands prés ,,6690,Vielsam,Luxembourg,,Y,,,"Rue les grands prés , 6690 Vielsam, Luxembourg",50.2517425,5.871151299999999,50.852375,4.426566666666667,Brussels Hoofdstedelijk Gewest
10863.0,,Ropswalle,10.0,8930,Menen,West-vlaanderen,,Y,,,"Ropswalle, 8930 Menen, West-vlaanderen",50.7875796,3.1038643,50.893915255833335,4.32135149175,Brussels Hoofdstedelijk Gewest
10868.0,,Gelukkige grijsheidstraat ,1.0,1080,Brussel,Bruxelles-brussel,,Y,,,"Gelukkige grijsheidstraat , 1080 Brussel, Bruxelles-brussel",50.8549228,4.2952708,50.81625999999999,4.30765,Brussels Hoofdstedelijk Gewest
10898.0,,Lange akker ,,9240,Zele,Oost-vlaanderen,,Y,,,"Lange akker , 9240 Zele, Oost-vlaanderen",51.0670499,4.0290064,50.868269999999995,4.292483333333333,Brussels Hoofdstedelijk Gewest
10904.0,,Akkerstraat,33.0,9090,Melle,Oost-vlaanderen,,Y,,,"Akkerstraat, 9090 Melle, Oost-vlaanderen",51.0086822,3.7889002,50.79447020166667,4.356588849466667,Brussels Hoofdstedelijk Gewest
10919.0,,Rue marché au charbon,30.0,1000,Bruxelles,Bruxelles-brussel,,Y,,,"Rue marché au charbon, 1000 Bruxelles, Bruxelles-brussel",50.8461293,4.3486482,50.83303623966667,4.363908295466667,Brussels Hoofdstedelijk Gewest
10927.0,,Rue j wauters,38.0,4480,Engis,Liège,,Y,,,"Rue j wauters, 4480 Engis, Liège",50.5772113,5.3929211,50.811207345,4.3612441534499995,Brussels Hoofdstedelijk Gewest
10931.0,,Rue de l innovation,7.0,5020,Suarlée,Namur,,Y,,,"Rue de l innovation, 5020 Suarlée, Namur",50.487856,4.8082675,50.81599,4.4295,Brussels Hoofdstedelijk Gewest
10931.0,,Rue de l innovation,7.0,5020,Suarlée,Namur,,Y,,,"Rue de l innovation, 5020 Suarlée, Namur",50.7950782,3.1194504,50.882694962,4.350867959733334,Brussels Hoofdstedelijk Gewest
10937.0,,Beneluxpark,21.0,8500,Kortrijk,West-vlaanderen,,Y,,,"Beneluxpark, 8500 Kortrijk, West-vlaanderen",50.7999855,3.2794026,50.86041,4.3715175,Brussels Hoofdstedelijk Gewest
10942.0,,Rue bourie,16.0,5300,Andenne,Namur,,Y,,,"Rue bourie, 5300 Andenne, Namur",50.50785,5.1402098,50.8533692805,4.398263368533334,Brussels Hoofdstedelijk Gewest
10945.0,,Galvestonstraat,37.0,9000,Gent,Oost-vlaanderen,,Y,,,"Galvestonstraat, 9000 Gent, Oost-vlaanderen",51.0777093,3.7319773,50.872775,4.325575,Brussels Hoofdstedelijk Gewest
10950.0,,Rue riverre,105.0,5150,Floreffe,Namur,,Y,,,"Rue riverre, 5150 Floreffe, Namur",51.1234311,4.1069676,50.841633098,4.307486874933334,Brussels Hoofdstedelijk Gewest
10951.0,,Rue del grète,22.0,5020,Daussoule,Namur,,Y,,,"Rue del grète, 5020 Daussoule, Namur",50.5214916,4.8868268,50.847351543,4.45947161936,Brussels Hoofdstedelijk Gewest
10957.0,,Renum novarumlaan,35.0,2340,Beerse,Antwerpen,,Y,,,"Renum novarumlaan, 2340 Beerse, Antwerpen",51.2213404,4.4051485,50.88006382975,4.3436978845750005,Brussels Hoofdstedelijk Gewest
10959.0,,Heilaarstraat,35.0,2340,Beerse,Antwerpen,,Y,,,"Heilaarstraat, 2340 Beerse, Antwerpen",51.0033875,4.4665625,50.812101456,4.387431982133333,Brussels Hoofdstedelijk Gewest
10963.0,,Heidijk,1.0,2340,Beerse,Antwerpen,,Y,,,"Heidijk, 2340 Beerse, Antwerpen",51.2985742,4.7783287,50.876869815499994,4.3889667885999994,Brussels Hoofdstedelijk Gewest
10964.0,,Wetschot,2.0,2340,Beerse,Antwerpen,,Y,,,"Wetschot, 2340 Beerse, Antwerpen",51.2891635,4.8030287,50.832676221,4.401967970666667,Brussels Hoofdstedelijk Gewest
10969.0,,Stachthuis,60.0,9100,Sint-niklaas,Oost-vlaanderen,,Y,,,"Stachthuis, 9100 Sint-niklaas, Oost-vlaanderen",51.1785314,4.1705086,50.868778722,4.31935420072,Brussels Hoofdstedelijk Gewest
10988.0,,Krijgsbaan,247.0,9140,Temse,Oost-vlaanderen,,Y,,,"Krijgsbaan, 9140 Temse, Oost-vlaanderen",51.1287474,4.2348408,50.895765,4.3551649999999995,Brussels Hoofdstedelijk Gewest
10992.0,,Taunusweg,49.0,3740,Bilzen,Limburg,,Y,,,"Taunusweg, 3740 Bilzen, Limburg",50.9086809,5.5160188,50.82969440383334,4.36952060355,Brussels Hoofdstedelijk Gewest
10993.0,,Rue alphonse sprumont,1.0,4801,Verviers,Liège,,Y,,,"Rue alphonse sprumont, 4801 Verviers, Liège",50.5970722,5.9018507,50.80049000000001,4.4013800000000005,Brussels Hoofdstedelijk Gewest
11003.0,,Turfaard,3.0,2930,Brasschaat,Antwerpen,,Y,,,"Turfaard, 2930 Brasschaat, Antwerpen",51.3016592,4.5124445,50.82349000000001,4.3101199999999995,Brussels Hoofdstedelijk Gewest
11056.0,,Guldensporelaan,7.0,3530,Houthalen,Limburg,,Y,,,"Guldensporelaan, 3530 Houthalen, Limburg",51.038888,5.3648156,50.8434,4.294205,Brussels Hoofdstedelijk Gewest
11063.0,,Heizel esplanade,1.0,1020,Brussel,Bruxelles-brussel,,Y,,,"Heizel esplanade, 1020 Brussel, Bruxelles-brussel",50.9001607,4.3429061,50.875495298,4.335550423800001,Brussels Hoofdstedelijk Gewest
11070.0,,Interleuven,58.0,3001,Leuven,Vlaams-brabant,,Y,,,"Interleuven, 3001 Leuven, Vlaams-brabant",50.8826624,4.6967705,50.8023,4.3816299999999995,Brussels Hoofdstedelijk Gewest
11075.0,,Prins baudewijnlaan,43.0,2650,Edegem,Antwerpen,,Y,,,"Prins baudewijnlaan, 2650 Edegem, Antwerpen",51.1588037,4.4301846,50.77712,4.33221,Brussels Hoofdstedelijk Gewest
11079.0,,Collegelaan,19.0,3600,Genk,Limburg,,Y,,,"Collegelaan, 3600 Genk, Limburg",50.9771298,5.5182413,50.84826496216667,4.309873205400001,Brussels Hoofdstedelijk Gewest
11086.0,,Dellestraat,30.0,3560,Lummen,Limburg,,Y,,,"Dellestraat, 3560 Lummen, Limburg",50.98805,5.24007,50.83619057925,4.370379833525,Brussels Hoofdstedelijk Gewest
11142.0,,Kortrijkstraat,236.0,8560,Wevelgem,West-vlaanderen,,Y,,,"Kortrijkstraat, 8560 Wevelgem, West-vlaanderen",50.8146862,3.2030104,50.849230000000006,4.372275,Brussels Hoofdstedelijk Gewest
11143.0,,La lienne,49.0,4987,Rahier,Liège,,Y,,,"La lienne, 4987 Rahier, Liège",50.3958608,5.7526355,50.831871361,4.333698145675,Brussels Hoofdstedelijk Gewest
11240.0,,Kikshamlei,2.0,2820,Rijmenam,Antwerpen,,Y,,,"Kikshamlei, 2820 Rijmenam, Antwerpen",51.0016076,4.5958556,50.81687134899998,4.346305384199999,Brussels Hoofdstedelijk Gewest
11248.0,,Rue georges lorand,3.0,6830,Bouillon,Luxembourg,,Y,,,"Rue georges lorand, 6830 Bouillon, Luxembourg",49.7963303,5.0679041,50.8164575525,4.386409366424999,Brussels Hoofdstedelijk Gewest
11271.0,,Avenue ernest cambier,,1030,Bruxelles,Bruxelles-brussel,,Y,,,"Avenue ernest cambier, 1030 Bruxelles, Bruxelles-brussel",50.8573359,4.3948099,50.820441067333334,4.3248325409,Brussels Hoofdstedelijk Gewest
11294.0,Appareil fixe-Vast apparaat,Tempel,113.0,9572,Lierde,Oost-vlaanderen,"buitengevel kantine
lambert  2005 coördinaten X111823.32 Y166764.18",Oui-Ja,Oui-Ja,,"Tempel, 9572 Lierde, Oost-vlaanderen",51.1789241,4.7315597,50.86531679825,4.284094489,Brussels Hoofdstedelijk Gewest
11294.0,,Industrieweg ,24.0,2280,Grobbendonk,Antwerpen,,Y,,,"Industrieweg , 2280 Grobbendonk, Antwerpen",50.8018346,3.815833,50.79481,4.36741,Brussels Hoofdstedelijk Gewest
11325.0,,Rue du palis,,6830,Rochehaut,Luxembourg,,Y,,,"Rue du palis, 6830 Rochehaut, Luxembourg",49.8420159,5.0102703,50.8558375,4.364940000000001,Brussels Hoofdstedelijk Gewest
11329.0,,Place st-pierre,,6600,Bastogne,Luxembourg,,Y,,,"Place st-pierre, 6600 Bastogne, Luxembourg",50.0053599,5.7214616,50.812485176,4.4260419032666665,Brussels Hoofdstedelijk Gewest
11344.0,,Industrieweg noord,1141.0,3660,Oudsbergen,Limburg,,Y,,,"Industrieweg noord, 3660 Oudsbergen, Limburg",51.0363245,5.5441355,50.86365038042857,4.335503455942857,Brussels Hoofdstedelijk Gewest
11362.0,,Rue léon catilhon,62.0,6700,Arlon,Luxembourg,,Y,,,"Rue léon catilhon, 6700 Arlon, Luxembourg",49.6836648,5.8079666,50.828585,4.4132050000000005,Brussels Hoofdstedelijk Gewest
11369.0,,Rue des fougères,,7500,Tournai,Hainaut,,Y,,,"Rue des fougères, 7500 Tournai, Hainaut",50.5940578,3.3947111,50.8373741348,4.33555501052,Brussels Hoofdstedelijk Gewest
11375.0,,Rue des fougères,,7500,Tournai,Hainaut,,Y,,,"Rue des fougères, 7500 Tournai, Hainaut",50.5940578,3.3947111,50.8408943685,4.2958632026,Brussels Hoofdstedelijk Gewest
11389.0,,Walenweg,95.0,1930,Nossegem,Vlaams-brabant,,Y,,,"Walenweg, 1930 Nossegem, Vlaams-brabant",50.87718,4.5225564,50.85877,4.285914999999999,Brussels Hoofdstedelijk Gewest
11401.0,,Heuvelstraat,166.0,2530,Boechout,Antwerpen,,Y,,,"Heuvelstraat, 2530 Boechout, Antwerpen",51.1627989,4.4936741,50.8772622462,4.326289259779999,Brussels Hoofdstedelijk Gewest
11412.0,,Rue du lombard,20.0,5000,Namur,Namur,,Y,,,"Rue du lombard, 5000 Namur, Namur",50.4648073,4.8707298,50.85969012066667,4.359952011999999,Brussels Hoofdstedelijk Gewest
11417.0,,Z.1. researchpark,80.0,1731,Zellik,Vlaams-brabant,,Y,,,"Z.1. researchpark, 1731 Zellik, Vlaams-brabant",50.87948290000001,4.2973374,50.876355,4.39583,Brussels Hoofdstedelijk Gewest
11465.0,,Chaussée d antoing,55.0,7500,Tournai,Hainaut,,Y,,,"Chaussée d antoing, 7500 Tournai, Hainaut",50.5971102,3.4041753,50.86415,4.378593333333333,Brussels Hoofdstedelijk Gewest
11477.0,,Avenue du bois de la cambre,211.0,1050,Bruxelles,Bruxelles-brussel,,Y,,,"Avenue du bois de la cambre, 1050 Bruxelles, Bruxelles-brussel",50.8082106,4.393223,50.839488701250005,4.349229198525,Brussels Hoofdstedelijk Gewest
11492.0,,Strandlaan,128.0,8670,Koksijde,West-vlaanderen,,Y,,,"Strandlaan, 8670 Koksijde, West-vlaanderen",51.10385,2.61898,50.81603,4.2921700000000005,Brussels Hoofdstedelijk Gewest
11522.0,,Place lambert fraipon,11.0,4800,Verviers,Liège,,Y,,,"Place lambert fraipon, 4800 Verviers, Liège",50.5808648,5.8381817,50.78172000000001,4.356699999999999,Brussels Hoofdstedelijk Gewest
11541.0,,Rue marcel lespagne,,5540,Hastière,Namur,,Y,,,"Rue marcel lespagne, 5540 Hastière, Namur",50.2153489,4.8225782,50.781995,4.37937,Brussels Hoofdstedelijk Gewest
11578.0,,Route provinciale,65.0,1450,Chastre,Brabant wallon,,Y,,,"Route provinciale, 1450 Chastre, Brabant wallon",50.6189447,4.645969,50.821127429,4.3437418765,Brussels Hoofdstedelijk Gewest
11590.0,,Route de dinant,1.0,6833,Vivy,Luxembourg,,Y,,,"Route de dinant, 6833 Vivy, Luxembourg",49.866876,5.0384163,50.822824,4.3318520000000005,Brussels Hoofdstedelijk Gewest
11601.0,,D ampsin,9.0,4540,Amay,Liège,,Y,,,"D ampsin, 4540 Amay, Liège",50.5576148,5.3030862,50.87118246033334,4.385589639166667,Brussels Hoofdstedelijk Gewest
11621.0,,Koralenhoeve,20.0,2160,Wommelgem,Antwerpen,,Y,,,"Koralenhoeve, 2160 Wommelgem, Antwerpen",51.2105355,4.5227389,50.807819353,4.346205213066667,Brussels Hoofdstedelijk Gewest
11641.0,,Rue de landen,19.0,4280,Hannut,Liège,,Y,,,"Rue de landen, 4280 Hannut, Liège",50.6897356,5.0820037,50.810578256,4.411049316200001,Brussels Hoofdstedelijk Gewest
11652.0,Appareil Fixe,Verdunstraat,750.0,1130,Haren,Bruxelles-brussel,,Y,,,"Verdunstraat, 1130 Haren, Bruxelles-brussel",50.8915609,4.4176397,50.87081435025,4.369699769625,Brussels Hoofdstedelijk Gewest
11661.0,Appareil Fixe,Rue du parc industriel ,4.0,4540,Amay,Liège,,Y,,,"Rue du parc industriel , 4540 Amay, Liège",50.5447298,5.3266914,50.811425,4.351935,Brussels Hoofdstedelijk Gewest
11761.0,Appareil fixe-Vast apparaat,Rue de fagnolle,7.0,5670,Dourbes,Namur,Exterieur Ecole,Non-Nee,Non-Nee,,"Rue de fagnolle, 5670 Dourbes, Namur",50.090752,4.5922903,50.82697,4.376245,Brussels Hoofdstedelijk Gewest
11778.0,Appareil fixe-Vast apparaat,Polbroek,124.0,9520,Sint-lievens-houtum,Oost-vlaanderen,Kantoor 1e etage,Non-Nee,Non-Nee,,"Polbroek, 9520 Sint-lievens-houtum, Oost-vlaanderen",50.916676,3.8527629,50.8403875,4.44803,Brussels Hoofdstedelijk Gewest
11819.0,Appareil fixe-Vast apparaat,Rue des ecoles,27.0,6540,Lobbes,Hainaut,Salle des fêtes,Oui-Ja,Non-Nee,8h - 16h,"Rue des ecoles, 6540 Lobbes, Hainaut",50.3477295,4.2667161,50.8644919435,4.3430923752,Brussels Hoofdstedelijk Gewest
11830.0,Appareil fixe-Vast apparaat,Avenue reine astrid,16.0,5000,Namur,Namur,Accueil,Oui-Ja,Non-Nee,8h-16h,"Avenue reine astrid, 5000 Namur, Namur",50.4626923,4.8539854,50.847030606,4.4323266243,Brussels Hoofdstedelijk Gewest
11834.0,Appareil fixe-Vast apparaat,Koningin fabiolalaan,60.0,1830,Machelen,Vlaams-brabant,Ingang Sociaal Huis,Oui-Ja,Oui-Ja,24/7,"Koningin fabiolalaan, 1830 Machelen, Vlaams-brabant",50.9107353,4.4419259,50.820538401,4.419781405966666,Brussels Hoofdstedelijk Gewest
11837.0,Appareil fixe-Vast apparaat,Rue de la maison forte,1.0,6600,Bastogne,Luxembourg,ACCUEIL,Oui-Ja,Non-Nee,7H A 20H,"Rue de la maison forte, 6600 Bastogne, Luxembourg",50.0061449,5.7188426,50.80386,4.398243333333333,Brussels Hoofdstedelijk Gewest
11845.0,Appareil fixe-Vast apparaat,Avenue des aubepine ,5.0,1480,Tubize,Brabant wallon,ACCEUIL,Non-Nee,Non-Nee,8H A 20H,"Avenue des aubepine , 1480 Tubize, Brabant wallon",50.687428,4.2290036,50.85097165625,4.335239864275,Brussels Hoofdstedelijk Gewest
11850.0,Appareil fixe-Vast apparaat,Brandstraat ,,8755,Ruiselede,West-vlaanderen,Ingang kantine KFC Doomkerke,Oui-Ja,Oui-Ja,Permanent,"Brandstraat , 8755 Ruiselede, West-vlaanderen",51.0679945,3.357928,50.84573,4.3527233333333335,Brussels Hoofdstedelijk Gewest
11870.0,Appareil fixe-Vast apparaat,Lostraat,28.0,9880,Aalter,Oost-vlaanderen,"Op het 1ste verdiep, aan de balie van afdeling de Lork, WZC Veilige Have Woonhave. Code 0000 V",Oui-Ja,Oui-Ja,weekdagen 8u30-20u30. Weekend en feestdagen 9u30-11u30 en 14u-18u,"Lostraat, 9880 Aalter, Oost-vlaanderen",51.0799333,3.4506831,50.818909999999995,4.36651,Brussels Hoofdstedelijk Gewest
11886.0,Appareil fixe-Vast apparaat,Lindenlaan ,201.0,9230,Wetteren,Oost-vlaanderen,Chirolokaal,Non-Nee,Non-Nee,,"Lindenlaan , 9230 Wetteren, Oost-vlaanderen",50.996239,3.8831338,50.8775625,4.305642499999999,Brussels Hoofdstedelijk Gewest
11905.0,Appareil fixe-Vast apparaat,Paul christiaenstraat,2.0,9960,Assenede,Oost-vlaanderen,Inkomhal aan de zij-ingang van het gebouw. ,Oui-Ja,Non-Nee,werkdagen van 08:00 tot 17:00,"Paul christiaenstraat, 9960 Assenede, Oost-vlaanderen",51.1987185,3.7636858,50.773749878,4.3707240011,Brussels Hoofdstedelijk Gewest
11920.0,Appareil fixe-Vast apparaat,Rue pont à migneloux,,6041,Gosselies,Hainaut,Caisses,Oui-Ja,Non-Nee,8h-18h,"Rue pont à migneloux, 6041 Gosselies, Hainaut",50.4876937,4.4523678,50.77757573400001,4.34375009495,Brussels Hoofdstedelijk Gewest
11927.0,Appareil fixe-Vast apparaat,"Valentin vaerwyckweg-campus schoonmeersen, gebouw p",1.0,9000,Gent,Oost-vlaanderen,"toegangsdeur kant onthaal, in coffeecorner personeel",Oui-Ja,Non-Nee,volgens openingsuren gebouw,"Valentin vaerwyckweg-campus schoonmeersen, gebouw p, 9000 Gent, Oost-vlaanderen",51.0342423,3.7019307,50.86061,4.298514999999999,Brussels Hoofdstedelijk Gewest
11932.0,Appareil fixe-Vast apparaat,Keramiekstraat ,80.0,9000,Gent,Oost-vlaanderen,in de inkom naast onthaal,Oui-Ja,Non-Nee,volgens openingsuren gebouw,"Keramiekstraat , 9000 Gent, Oost-vlaanderen",51.0200333,3.7261541,50.8398809504,4.33067560044,Brussels Hoofdstedelijk Gewest
11972.0,Appareil fixe-Vast apparaat,Rue saint-jaques ,,5500,Dinant,Namur,ACCUEIL,Oui-Ja,Non-Nee,HORAIRE BUREAU,"Rue saint-jaques , 5500 Dinant, Namur",50.2666453,4.9317607,50.824367956,4.326890357133333,Brussels Hoofdstedelijk Gewest
11981.0,Appareil fixe,Boulevard patience et beaujonc,2.0,4000,Liège,Liège,"Niv 0, entrée principale visible en venant des ""tourniquets"" ( à gauche des acsenceurs et de l escalier",Oui,Oui,,"Boulevard patience et beaujonc, 4000 Liège, Liège",50.6467774,5.5360623,50.803025938,4.36044534525,Brussels Hoofdstedelijk Gewest
11986.0,Vast apparaat,Tichelrei,1.0,9000,Gent,Oost-vlaanderen,"Vzw Domino, Restaurant Volkskliniek, glv",Oui,Oui,,"Tichelrei, 9000 Gent, Oost-vlaanderen",51.0609641,3.7229019,50.828860000000006,4.355649999999999,Brussels Hoofdstedelijk Gewest
12006.0,Appareil fixe-Vast apparaat,Pluimstraat,18.0,8600,Diksmuide,West-vlaanderen,Centrale hal/receptie,Oui-Ja,Oui-Ja,,"Pluimstraat, 8600 Diksmuide, West-vlaanderen",51.0200278,2.8794009,50.873225,4.35807,Brussels Hoofdstedelijk Gewest
12011.0,Appareil fixe-Vast apparaat,Skaldenstraat ,,9042,Gent,Oost-vlaanderen,Binnenplaats aan het magazijn,Non-Nee,Oui-Ja,,"Skaldenstraat , 9042 Gent, Oost-vlaanderen",51.1151688,3.7847173,50.86194858780001,4.31565869322,Brussels Hoofdstedelijk Gewest
12027.0,Appareil fixe-Vast apparaat,Burgemeester e. ryckaertsplein,1.0,2600,Berchem,Antwerpen,Wachtzaal,Oui-Ja,Non-Nee,5:45 - 20:00,"Burgemeester e. ryckaertsplein, 2600 Berchem, Antwerpen",51.2004659,4.4332908,50.88931418166667,4.378917116333334,Brussels Hoofdstedelijk Gewest
12046.0,Appareil fixe-Vast apparaat,Dagsterrestraat,2.0,9170,Sint-gillis-waas,Oost-vlaanderen,"NAAST INGANG FEESTZAAL RECHT TEGENOVER MOLENSTRAAT 2, 9170 SINT-GILLIS-WAAS",Oui-Ja,Oui-Ja,24/24,"Dagsterrestraat, 9170 Sint-gillis-waas, Oost-vlaanderen",51.204948,4.1481636,50.8093657115,4.31650678695,Brussels Hoofdstedelijk Gewest
12075.0,Appareil fixe-Vast apparaat,Musee abbaye 1 ,1.0,4100,Seraing,Liège,1ER ETAGE,Oui-Ja,Non-Nee,HEURE D OUVERTURE BUREAU,"Musee abbaye 1 , 4100 Seraing, Liège",50.6069766,5.499188699999999,50.84205,4.28906,Brussels Hoofdstedelijk Gewest
12092.0,Appareil fixe-Vast apparaat,Nijverheidspark,10.0,3580,Beringen,Limburg,"Aan de buitendeur van de brandweerkazerne, langs de brievenbus.",Oui-Ja,Oui-Ja,24/24,"Nijverheidspark, 3580 Beringen, Limburg",51.0546679,5.218459,50.81936666666667,4.430036666666666,Brussels Hoofdstedelijk Gewest
12093.0,Appareil fixe-Vast apparaat,Ervaert,4.0,3840,Borgloon,Limburg,"AED bevindt zich tegen de buitengevel van de brandweerkazerne en politiekazerne van Borgloon, aan de kant van de politie (voordeur politie), zijde Guldenbodemlaan.",Oui-Ja,Oui-Ja,24/24,"Ervaert, 3840 Borgloon, Limburg",50.79621110000001,5.3462923,50.800954864999994,4.3529535968,Brussels Hoofdstedelijk Gewest
12219.0,Appareil fixe-Vast apparaat,Zeswegnstraat ,120.0,8790,Waregem,West-vlaanderen,Inkom parking t’ gaverken,Oui-Ja,,,"Zeswegnstraat , 8790 Waregem, West-vlaanderen",50.8875328,3.4198276,50.89124334899999,4.4136264092,Brussels Hoofdstedelijk Gewest
12220.0,Appareil fixe-Vast apparaat,Deerlijkseweg ,46.0,8790,Waregem,West-vlaanderen,Inkom Buitenkast,Oui-Ja,,,"Deerlijkseweg , 8790 Waregem, West-vlaanderen",50.8691517,3.4079773,50.879817587000005,4.375647763799999,Brussels Hoofdstedelijk Gewest
12222.0,Appareil fixe-Vast apparaat,Gebroeders de smetstraat ,1.0,9000,Gent,Oost-vlaanderen,receptie rechts,Non-Nee,,,"Gebroeders de smetstraat , 9000 Gent, Oost-vlaanderen",51.062379,3.7069419,50.810046411,4.433235299766666,Brussels Hoofdstedelijk Gewest
12269.0,Appareil fixe-Vast apparaat,Boer janssensstraat,15.0,9050,Gentbrugge,Oost-vlaanderen,Buiten aan de kleedkamers tussen sanitair dames en heren,Oui-Ja,Oui-Ja,,"Boer janssensstraat, 9050 Gentbrugge, Oost-vlaanderen",51.0412261,3.7744368,50.8586468275,4.3503916668,Brussels Hoofdstedelijk Gewest
12282.0,Appareil fixe-Vast apparaat,De weven,6.0,3583,Beringen,Limburg,"Het AED-toestel is geplaatst bij het bedrijf ""Porsche Center Paal"" op het bovenvermeld adres, het toestel is gelokaliseerd rechts onder het afdak aan de linkerzijde van het bedrijf.",Oui-Ja,Oui-Ja,,"De weven, 3583 Beringen, Limburg",51.0505787,5.171563,50.8834024982,4.34297829954,Brussels Hoofdstedelijk Gewest
12330.0,Appareil fixe-Vast apparaat,Chemin de mons ,61.0,6220,Fleurus,Hainaut,Au rez de l entrée principale du bâtiment,Oui-Ja,Non-Nee,7h30 à 17h00,"Chemin de mons , 6220 Fleurus, Hainaut",50.4874088,4.5470626,50.82712,4.27738,Brussels Hoofdstedelijk Gewest
12337.0,Appareil fixe-Vast apparaat,Rue marché au charbon,30.0,1000,Bruxelles,Bruxelles-brussel,Appareil nomade,Non-Nee,Non-Nee,,"Rue marché au charbon, 1000 Bruxelles, Bruxelles-brussel",50.8461293,4.3486482,50.8581239408,4.33638202454,Brussels Hoofdstedelijk Gewest
12348.0,Appareil fixe-Vast apparaat,Rue marché au charbon,30.0,1000,Bruxelles,Bruxelles-brussel,Appareil nomade,Non-Nee,Non-Nee,,"Rue marché au charbon, 1000 Bruxelles, Bruxelles-brussel",50.8461293,4.3486482,50.79888613450001,4.4104789954,Brussels Hoofdstedelijk Gewest
12361.0,Appareil fixe-Vast apparaat,Rue marché au charbon,30.0,1000,Bruxelles,Bruxelles-brussel,Appareil nomade,Non-Nee,Non-Nee,,"Rue marché au charbon, 1000 Bruxelles, Bruxelles-brussel",50.8461293,4.3486482,50.79418163125,4.353893771125,Brussels Hoofdstedelijk Gewest
12370.0,Appareil fixe-Vast apparaat,Rue marché au charbon,30.0,1000,Bruxelles,Bruxelles-brussel,Appareil nomade,Non-Nee,Non-Nee,,"Rue marché au charbon, 1000 Bruxelles, Bruxelles-brussel",50.8461293,4.3486482,50.81583500000001,4.35751,Brussels Hoofdstedelijk Gewest
12389.0,Appareil fixe-Vast apparaat,Alfons braeckmanlaan,2.0,9040,Sint-amandsberg,Oost-vlaanderen,Berging cafetaria,Oui-Ja,Oui-Ja,,"Alfons braeckmanlaan, 9040 Sint-amandsberg, Oost-vlaanderen",51.0660575,3.7812125,50.78803,4.3220600000000005,Brussels Hoofdstedelijk Gewest
12392.0,Appareil fixe-Vast apparaat,Rue de hermée ,175.0,4040,Herstal,Liège,Atelier infirmerie,Oui-Ja,Non-Nee,,"Rue de hermée , 4040 Herstal, Liège",50.6934624,5.6276423,50.86793,4.375132499999999,Brussels Hoofdstedelijk Gewest
12394.0,Appareil fixe-Vast apparaat,Oude scheldestraat ,16.0,9630,Zwalm,Oost-vlaanderen,Binnenplein educatief centrum,Oui-Ja,Oui-Ja,,"Oude scheldestraat , 9630 Zwalm, Oost-vlaanderen",50.9047095,3.6939296,50.827586411,4.3051152844499985,Brussels Hoofdstedelijk Gewest
12413.0,Appareil fixe-Vast apparaat,Fr de merodestraat ,88.0,2800,Mechelen,Antwerpen,3de verdiep middenbouw - tov vergaderzaal 3.31,Non-Nee,Oui-Ja,,"Fr de merodestraat , 2800 Mechelen, Antwerpen",51.0306406,4.4824085,50.899912206,4.3616049283,Brussels Hoofdstedelijk Gewest
12418.0,Appareil fixe-Vast apparaat,Place didier,45.0,6700,Arlon,Luxembourg,bureau,Oui-Ja,Non-Nee,,"Place didier, 6700 Arlon, Luxembourg",49.6848966,5.8131387,50.89209,4.3742399999999995,Brussels Hoofdstedelijk Gewest
12424.0,Appareil fixe-Vast apparaat,Boulevard initialis,,7000,Mons,Hainaut,Accueil,Oui-Ja,Non-Nee,,"Boulevard initialis, 7000 Mons, Hainaut",50.4605232,3.9329387,50.8257607025,4.44506935745,Brussels Hoofdstedelijk Gewest
12438.0,Appareil fixe-Vast apparaat,Rue de la carrière aux pavés,14.0,1315,Incourt,Brabant wallon,Accueil,Oui-Ja,Non-Nee,,"Rue de la carrière aux pavés, 1315 Incourt, Brabant wallon",50.6857926,4.8063028,50.78793,4.375559999999999,Brussels Hoofdstedelijk Gewest
12449.0,Appareil fixe-Vast apparaat,Avenue de la toison d or,71.0,6900,Marche en famenne,Luxembourg,Accueil,Oui-Ja,Non-Nee,,"Avenue de la toison d or, 6900 Marche en famenne, Luxembourg",50.2189997,5.3395601,50.8539607836,4.39176866916,Brussels Hoofdstedelijk Gewest
12452.0,Appareil fixe-Vast apparaat,Woluwelaan,9.0,1800,Vilvoorde,Vlaams-brabant,Nomade,,,,"Woluwelaan, 1800 Vilvoorde, Vlaams-brabant",50.9180835,4.4379294,50.81023,4.32564,Brussels Hoofdstedelijk Gewest
12517.0,Appareil fixe-Vast apparaat,Technologiepark,73.0,9052,Zwijnaarde,Oost-vlaanderen,Gelijkvloers: achterkant van de centrale trappenhal,Oui-Ja,Non-Nee,Maandag t.e.m. donderdag: 08u00 tot 17u30. Vrijdag: 08u00 tot 15u30,"Technologiepark, 9052 Zwijnaarde, Oost-vlaanderen",51.0100414,3.7097105,50.852431529666674,4.306428995200001,Brussels Hoofdstedelijk Gewest
12531.0,Appareil fixe-Vast apparaat,Place saint lazare,2.0,1210,Bruxelles,Bruxelles-brussel,15e étage,Oui-Ja,Non-Nee,,"Place saint lazare, 1210 Bruxelles, Bruxelles-brussel",50.8573214,4.3620215,50.8474671485,4.2888537292999995,Brussels Hoofdstedelijk Gewest
12540.0,Appareil fixe-Vast apparaat,De lusthoven,14.0,2370,Arendonk,Antwerpen,Naast de inkom deur van de hal.,Oui-Ja,Non-Nee,openingsuren van TC De Lusthoven,"De lusthoven, 2370 Arendonk, Antwerpen",51.3539406,5.0692167,50.840115,4.380345,Brussels Hoofdstedelijk Gewest
12556.0,Appareil fixe-Vast apparaat,Scheldelaan ,480.0,2040,Antwerpen,Antwerpen,Inkomhal medische dienst,Oui-Ja,Oui-Ja,,"Scheldelaan , 2040 Antwerpen, Antwerpen",51.3346728,4.2832375,50.812070000000006,4.34279,Brussels Hoofdstedelijk Gewest
12598.0,Appareil fixe-Vast apparaat,Chemin de la sucrerie,2.0,1300,Wavre,Brabant wallon,Bibliothèque en dessous du bureau à droite,Oui-Ja,09.00 - 17.00,09.00 - 17.00,"Chemin de la sucrerie, 1300 Wavre, Brabant wallon",50.816711,4.2615422,50.8099158065,4.330454599800001,Brussels Hoofdstedelijk Gewest
12609.0,Appareil fixe-Vast apparaat,Rue kefer,2.0,5100,Jambes ,Namur,Rez De Chaussee ,Non-Nee,Non-Nee,,"Rue kefer, 5100 Jambes , Namur",50.460392,4.8741253,50.8458199795,4.3235644957999995,Brussels Hoofdstedelijk Gewest
12611.0,Appareil fixe-Vast apparaat,Markt,28.0,2400,Mol,Antwerpen,Koer 2,Oui-Ja,Non-Nee,8-16h,"Markt, 2400 Mol, Antwerpen",51.0454078,3.7501484,50.89586333333333,4.359073333333333,Brussels Hoofdstedelijk Gewest
12617.0,Appareil fixe-Vast apparaat,Rue des marais,28.0,7750,Amougies,Hainaut,Mur Extérieur du Bâtiment foot. Près des Vestiaires,Oui-Ja,Oui-Ja,,"Rue des marais, 7750 Amougies, Hainaut",50.8320497,4.3793654,50.792255653,4.34700542795,Brussels Hoofdstedelijk Gewest
12623.0,Appareil fixe-Vast apparaat,Kleine havertuin ,26.0,9090,Melle,Oost-vlaanderen,BUITEN AAN DE MUUR VAN DE ONTMOETINGSRUIMTE,Oui-Ja,Oui-Ja,24/24,"Kleine havertuin , 9090 Melle, Oost-vlaanderen",50.9980548,3.7911541,50.879306666666665,4.32921,Brussels Hoofdstedelijk Gewest
12671.0,Appareil fixe-Vast apparaat,Nieuwstraat,1.0,1785,Merchtem,Vlaams-brabant,buitengevel gemeentehuis,Oui-Ja,Oui-Ja,,"Nieuwstraat, 1785 Merchtem, Vlaams-brabant",50.9585888,4.2316171,50.8661724528,4.30648049252,Brussels Hoofdstedelijk Gewest
12681.0,Appareil fixe-Vast apparaat,Zoning industriel du vieux pont,5.0,7900,Leuze-en-hainaut,Hainaut,A l entrée de site au niveau de la bascule (local de garde),Non-Nee,Oui-Ja,24/24 et 7j/7,"Zoning industriel du vieux pont, 7900 Leuze-en-hainaut, Hainaut",50.6030692,3.6272756,50.8093772255,4.340094379550001,Brussels Hoofdstedelijk Gewest
12683.0,Appareil fixe-Vast apparaat,Zoning industriel du vieux pont,5.0,7900,Leuze-en-hainaut,Hainaut,Entrée des bureaux de service agronomie ,Non-Nee,Oui-Ja,,"Zoning industriel du vieux pont, 7900 Leuze-en-hainaut, Hainaut",50.6030692,3.6272756,50.83538333333333,4.277823333333333,Brussels Hoofdstedelijk Gewest
