id,type,address,number,postal_code,municipality,province,location,public,available,hours,full_address,lat,lon,new_lat,new_lon,new_province
13.0,,Blvd. fr. roosevelt,24.0,7060,Soignies,Hainaut,,Y,,,"Blvd. fr. roosevelt, 7060 Soignies, Hainaut",50.5760416,4.0657403,50.92432,5.25369,Provincie Limburg
70.0,,Ch. de wégimont,76.0,4630,Ayeneux,Liège,,,,,"Ch. de wégimont, 4630 Ayeneux, Liège",50.6076801,5.7301866,50.892865,4.0756185,Provincie Oost-Vlaanderen
71.0,,Place saint-lambert,,4020,Liège,Liège,,,,,"Place saint-lambert, 4020 Liège, Liège",50.6456222,5.5736201,51.183575,3.141258,Provincie West-Vlaanderen
72.0,,Rue du doyard,,4990,Lierneux,Liège,,,,,"Rue du doyard, 4990 Lierneux, Liège",50.2874163,5.7863246,50.41584,4.876835,Provincie Namen
73.0,,Fond saint servais,,4000,Liège,Liège,,,,,"Fond saint servais, 4000 Liège, Liège",50.6468058,5.5710309,51.159505,4.485365,Provincie Antwerpen
74.0,,Rue des prémontrès,12.0,4020,Liège,Liège,,,,,"Rue des prémontrès, 4020 Liège, Liège",50.637795,5.5743458,50.58570666666667,5.496453333333333,Provincie Luik
75.0,,Route de bastogne,1.0,4920,Harzé,Liège,,,,,"Route de bastogne, 4920 Harzé, Liège",50.4377504,5.6673911,50.464937500000005,4.2554475,Provincie Henegouwen
76.0,,Rue du parc,1.0,4540,Jehay,Liège,,,,,"Rue du parc, 4540 Jehay, Liège",50.5786968,5.3257587,50.8548868892,4.39561040308,Brussels Hoofdstedelijk Gewest
77.0,,Blvd. de la constitution,19.0,4020,Liège,Liège,,,,,"Blvd. de la constitution, 4020 Liège, Liège",50.6441832,5.5882429,49.68526,5.71206,Provincie Luxemburg
78.0,,Place de la république française ,,4000,Liège,Liège,,,,,"Place de la république française , 4000 Liège, Liège",50.6434288,5.5718235,51.039408,3.731184,Provincie Oost-Vlaanderen
79.0,,Rue darchis,33.0,4020,Liège,Liège,,,,,"Rue darchis, 4020 Liège, Liège",50.6370996,5.5649557,50.622595,3.35509,Provincie Henegouwen
86.0,,Schumanplein,11.0,1040,Brussel,Bruxelles-brussel,,,,,"Schumanplein, 1040 Brussel, Bruxelles-brussel",50.8421891,4.3835297,50.922064500000005,4.762743,Provincie Vlaams-Brabant
87.0,,Uitbreidingstraat,,2600,Berchem,Antwerpen,,,,,"Uitbreidingstraat, 2600 Berchem, Antwerpen",51.1967334,4.4294545,51.23953,4.96585,Provincie Antwerpen
95.0,,Peperstraat,2.0,3300,Tienen,Vlaams-brabant,,Y,,,"Peperstraat, 3300 Tienen, Vlaams-brabant",50.8065188,4.9375261,50.58859,5.87058,Provincie Luik
96.0,,Graafschap-jettelaan,2.0,1090,Brussel,Bruxelles-brussel,,,,,"Graafschap-jettelaan, 1090 Brussel, Bruxelles-brussel",50.8830257,4.3333836,50.967724,3.025762,Provincie West-Vlaanderen
97.0,,Sint-pieterskerstraat,,1090,Brussel,Bruxelles-brussel,,,,,"Sint-pieterskerstraat, 1090 Brussel, Bruxelles-brussel",50.8802534,4.3250605,50.87236333333333,5.513723333333333,Provincie Limburg
98.0,,Wemmelsestweg,100.0,1090,Brussel,Bruxelles-brussel,,,,,"Wemmelsestweg, 1090 Brussel, Bruxelles-brussel",50.8747739,4.3314996,50.48498,3.8359,Provincie Henegouwen
100.0,,Rue pietro ferrero,5.0,6700,Arlon,Luxembourg,,N,,,"Rue pietro ferrero, 6700 Arlon, Luxembourg",49.6745435,5.818557,49.91709,5.40049,Provincie Luxemburg
101.0,,Tweestationsstraat,80.0,1070,Brussel,Bruxelles-brussel,,,,,"Tweestationsstraat, 1070 Brussel, Bruxelles-brussel",50.8314212,4.3222147,50.44189,4.35776,Provincie Henegouwen
102.0,,Nieuwe weg ,1.0,2070,Zwijndrecht,Antwerpen,,Y,,,"Nieuwe weg , 2070 Zwijndrecht, Antwerpen",51.2398636,4.3272098,51.1113605,2.6353125,Provincie West-Vlaanderen
111.0,,Hermeslaan,2.0,1831,Machelenbt),Vlaams-brabant,,,,,"Hermeslaan, 1831 Machelenbt), Vlaams-brabant",50.8819608,4.441951,51.211458,4.256965,Provincie Oost-Vlaanderen
115.0,,Gemeenteplein,1.0,3798,Voeren  s gravenvoeren,Limburg,,Y,,,"Gemeenteplein, 3798 Voeren  s gravenvoeren, Limburg",50.7597774,5.7596643,50.881868,3.35894,Provincie West-Vlaanderen
116.0,,Remersdaal-dorp,1.0,3791,Remersdaal,Limburg,,,,,"Remersdaal-dorp, 3791 Remersdaal, Limburg",50.7297617,5.8785602,51.24787,5.43922,Provincie Limburg
117.0,,Sint-pieterstraat ,20.0,3792,Sint-pieters-voeren,Limburg,,Y,,,"Sint-pieterstraat , 3792 Sint-pieters-voeren, Limburg",50.7353624,5.8246102,50.63562,5.13995,Provincie Luik
118.0,,Kerkplein,1.0,3790,Moelingen,Limburg,,Y,,,"Kerkplein, 3790 Moelingen, Limburg",50.7572831,5.7107026,50.85413307016667,4.313577483516667,Brussels Hoofdstedelijk Gewest
119.0,,Gieveldstraat,,3793,Teuven,Limburg,,Y,,,"Gieveldstraat, 3793 Teuven, Limburg",50.7518324,5.8759546,51.251006,2.973363,Provincie West-Vlaanderen
120.0,,Kerkstraat,1.0,3790,Voeren,Limburg,,Y,,,"Kerkstraat, 3790 Voeren, Limburg",50.7488563,5.812563,50.09254,4.67111,Provincie Namen
167.0,,Vanhalstraat,1.0,1500,Halle,Vlaams-brabant,,y,,,"Vanhalstraat, 1500 Halle, Vlaams-brabant",50.73248479999999,4.234912899999999,50.53319333333333,4.597546666666667,Provincie Namen
170.0,,Brikkenovenstraat,48.0,3600,Genk,Limburg,,N,,,"Brikkenovenstraat, 3600 Genk, Limburg",50.9792712,5.4711585,51.27538,4.68568,Provincie Antwerpen
214.0,,Rue de l église,,1150,Bruxelles,Bruxelles-brussel,,,,,"Rue de l église, 1150 Bruxelles, Bruxelles-brussel",50.8407211,4.4634331,51.24845,4.4387075,Provincie Antwerpen
218.0,,Cours des mineurs,,4000,Liège,Liège,,,,,"Cours des mineurs, 4000 Liège, Liège",50.6472929,5.5760923,50.652365,5.5939250000000005,Provincie Luik
219.0,,Rue des croisiers,15.0,4000,Liège,Liège,,,,,"Rue des croisiers, 4000 Liège, Liège",50.6393547,5.5761561,50.27726,6.25751,Provincie Luik
220.0,,Rue de l école technique ,,4040,Herstal,Liège,,,,,"Rue de l école technique , 4040 Herstal, Liège",50.6715508,5.6402438,50.793163,3.748383,Provincie Oost-Vlaanderen
221.0,,Rue de wallonie,30.0,4460,Bierset,Liège,,,,,"Rue de wallonie, 4460 Bierset, Liège",50.653661,5.4888011,50.20926,5.3351,Provincie Luxemburg
222.0,,Rue paul d andrimont,24.0,4630,Micheroux,Liège,,,,,"Rue paul d andrimont, 4630 Micheroux, Liège",50.6258166,5.7163815,50.83189,4.986649,Provincie Vlaams-Brabant
223.0,,Bd. léon philippet,83.0,4000,Liège,Liège,,,,,"Bd. léon philippet, 4000 Liège, Liège",50.6527913,5.5594107,51.20485266666667,3.4499323333333334,Provincie Oost-Vlaanderen
224.0,,Rue du commerce,14.0,4100,Seraing,Liège,,,,,"Rue du commerce, 4100 Seraing, Liège",50.6126943,5.5083713,51.13352,5.073,Provincie Antwerpen
225.0,,Rue peetermans,80.0,4100,Seraing,Liège,,,,,"Rue peetermans, 4100 Seraing, Liège",50.6117019,5.5101966,50.70596,4.527895,Provincie Waals-Brabant
226.0,,Rue j. stassart,15.0,4367,Crisnée,Liège,,,,,"Rue j. stassart, 4367 Crisnée, Liège",50.7081407,5.3898948,51.03858,5.55067,Provincie Limburg
227.0,,Route de dinant,119.0,4020,Liège,Liège,,,,,"Route de dinant, 4020 Liège, Liège",50.6415737,5.5823234,50.750725,3.20668,Provincie Henegouwen
228.0,,Rue de huy,123.0,4300,Waremme,Liège,,,,,"Rue de huy, 4300 Waremme, Liège",50.6743418,5.2512582,50.426955,4.4937249999999995,Provincie Henegouwen
229.0,,Rue de sélys,35.0,4300,Waremme,Liège,,,,,"Rue de sélys, 4300 Waremme, Liège",50.6906196,5.2420853,51.094986,4.155774,Provincie Oost-Vlaanderen
230.0,,Rue st. pierre,48.0,4500,Huy,Liège,,,,,"Rue st. pierre, 4500 Huy, Liège",50.5224312,5.2355908,50.6081525,4.1387625,Provincie Henegouwen
231.0,,Avenue delchambre,6.0,4500,Huy,Liège,,,,,"Avenue delchambre, 4500 Huy, Liège",50.5212782,5.2402073,50.19161,4.26428,Provincie Henegouwen
232.0,,Rue lambert marlet,23.0,4020,Liège,Liège,,,,,"Rue lambert marlet, 4020 Liège, Liège",50.6844201,5.7233941,51.001551,4.498832,Provincie Vlaams-Brabant
233.0,,Rue aux laines,69.0,4800,Verviers,Liège,,,,,"Rue aux laines, 4800 Verviers, Liège",50.5891081,5.8515833,51.00462,3.886907,Provincie Oost-Vlaanderen
234.0,,Rue av. peltzer,40.0,4020,Liège,Liège,,,,,"Rue av. peltzer, 4020 Liège, Liège",50.6423532,5.6279411,50.31758,5.55496,Provincie Luxemburg
235.0,,Route du canada,157.0,4910,La reid,Liège,,,,,"Route du canada, 4910 La reid, Liège",50.4893888,5.790589,50.750685,2.94542,Provincie Henegouwen
238.0,,Route de botrange,131.0,4950,Robertville,Liège,,,,,"Route de botrange, 4950 Robertville, Liège",50.4907832,6.1058516,51.07803,4.32315,Provincie Antwerpen
240.0,,Avenue montesquieu,6.0,4101,Jemeppe-sur-meuse,Liège,,,,,"Avenue montesquieu, 4101 Jemeppe-sur-meuse, Liège",50.6189796,5.5151582,50.986695,5.7140175,Provincie Limburg
242.0,,Rue grand puits,,4040,Herstal,Liège,,,,,"Rue grand puits, 4040 Herstal, Liège",50.6716874,5.6393763,50.768823999999995,4.320907,Provincie Vlaams-Brabant
259.0,,Rue de la bouviere,1.0,4190,Vieuxville,Liège,,,,,"Rue de la bouviere, 4190 Vieuxville, Liège",50.39379,5.54955,49.79712,5.06826,Provincie Luxemburg
275.0,,Da vincilaan,,1930,Zaventem,Vlaams-brabant,,,,,"Da vincilaan, 1930 Zaventem, Vlaams-brabant",50.8892246,4.4591702,51.315903,3.209114,Provincie West-Vlaanderen
277.0,Appareil Mobile- Mobiel apparaat,Adriaan brouwerstraat,24.0,2000,Antwerpen,Antwerpen,,,,,"Adriaan brouwerstraat, 2000 Antwerpen, Antwerpen",51.2275756,4.4034814,50.978997,3.5320753333333337,Provincie Oost-Vlaanderen
282.0,,Kempenarestraat,53.0,2860,Sint-katelijne-waver,Antwerpen,,Y,,,"Kempenarestraat, 2860 Sint-katelijne-waver, Antwerpen",51.0640782,4.5193812,51.03695,4.86232,Provincie Antwerpen
310.0,,Koninginnelaan,1.0,8400,Oostende,West-vlaanderen,,,,,"Koninginnelaan, 8400 Oostende, West-vlaanderen",51.2226732,2.9116038,50.63102333333333,6.031266666666666,Provincie Luik
311.0,,Northlaan,13.0,8400,Oostende,West-vlaanderen,,,,,"Northlaan, 8400 Oostende, West-vlaanderen",51.2180627,2.8892599,51.117905,5.26451,Provincie Limburg
312.0,,Kursaal-oosthelling,12.0,8400,Oostende,West-vlaanderen,,,,,"Kursaal-oosthelling, 8400 Oostende, West-vlaanderen",51.232146,2.9126781,50.51779,5.24259,Provincie Luik
313.0,,Leopold van tyghemlaan,62.0,8400,Oostende,West-vlaanderen,,,,,"Leopold van tyghemlaan, 8400 Oostende, West-vlaanderen",51.2162365,2.8874038,51.138785,4.7548075,Provincie Antwerpen
315.0,,Wetstraat,23.0,1040,Brussel,Bruxelles-brussel,,,,,"Wetstraat, 1040 Brussel, Bruxelles-brussel",50.8436372,4.377997,50.650015,4.7707,Provincie Waals-Brabant
316.0,,Grotesteenweg-noord,9.0,9052,Gent,Oost-vlaanderen,,,,,"Grotesteenweg-noord, 9052 Gent, Oost-vlaanderen",51.0132601,3.7058792,50.01083,5.72269,Provincie Luxemburg
317.0,,Kunstlaan,16.0,3500,Hasselt,Limburg,,,,,"Kunstlaan, 3500 Hasselt, Limburg",50.9270688,5.3454196,50.8743375,4.69161875,Provincie Vlaams-Brabant
318.0,,Interleuvenlaan ,58.0,3001,Leuven,Vlaams-brabant,,,,,"Interleuvenlaan , 3001 Leuven, Vlaams-brabant",50.8507187,4.7303674,50.931731,2.739276,Provincie West-Vlaanderen
319.0,,Sint-katelijnestraat ,154.0,2800,Mechelen,Antwerpen,,,,,"Sint-katelijnestraat , 2800 Mechelen, Antwerpen",51.0317768,4.4766294,50.800747,3.610861,Provincie Oost-Vlaanderen
320.0,,Hof ter weze,1.0,8800,Roeselare,West-vlaanderen,,,,,"Hof ter weze, 8800 Roeselare, West-vlaanderen",50.92374,3.11918,50.50166,3.65476,Provincie Henegouwen
321.0,,Patersstraat,100.0,2300,Turnhout,Antwerpen,,,,,"Patersstraat, 2300 Turnhout, Antwerpen",51.3262867,4.9494814,50.919417,3.1995180000000003,Provincie West-Vlaanderen
323.0,,Interleuven,58.0,3001,Leuven,Vlaams-brabant,,,,,"Interleuven, 3001 Leuven, Vlaams-brabant",50.8826624,4.6967705,50.73389,3.969679,Provincie Vlaams-Brabant
328.0,, ingelmunstersteenweg,11.0,8760,Meulebeke,West-vlaanderen,,,,," ingelmunstersteenweg, 8760 Meulebeke, West-vlaanderen",50.9444025,3.2766949,50.44938,3.9494433333333334,Provincie Henegouwen
335.0,,Chaussée de haecht,1405.0,1130,Bruxelles,Bruxelles-brussel,,,,,"Chaussée de haecht, 1130 Bruxelles, Bruxelles-brussel",50.8812591,4.4160117,50.970971000000006,5.072706999999999,Provincie Vlaams-Brabant
341.0,,Avenue du bois st. jean,21.0,4000,Liège,Liège,,,,,"Avenue du bois st. jean, 4000 Liège, Liège",50.5788411,5.5554202,50.08086,4.98548,Provincie Namen
344.0,,Keienpoelweg,6.0,3300,Tienen,Vlaams-brabant,,Y,,,"Keienpoelweg, 3300 Tienen, Vlaams-brabant",50.7953429,4.9902691,51.119385,3.997005,Provincie Oost-Vlaanderen
346.0,,Avenue de gaulle,2.0,7500,Tournai,Hainaut,,Y,,,"Avenue de gaulle, 7500 Tournai, Hainaut",50.6058876,3.3782135,51.205019,3.7895,Provincie Oost-Vlaanderen
349.0,,Haven 1968 sint annalaan ,1.0,9130,Kallo,Oost-vlaanderen,,Y,,,"Haven 1968 sint annalaan , 9130 Kallo, Oost-vlaanderen",51.2881745,4.2892698,50.2352,5.10731,Provincie Namen
354.0,,Bld leopold ii,44.0,1080,Bruxelles,Bruxelles-brussel,,,,,"Bld leopold ii, 1080 Bruxelles, Bruxelles-brussel",50.860875,4.3386838,51.3544825,4.762225,Provincie Antwerpen
355.0,,Adolphe lavallée,1.0,1080,Bruxelles,Bruxelles-brussel,,,,,"Adolphe lavallée, 1080 Bruxelles, Bruxelles-brussel",50.8589961,4.3419258,50.42533,6.02582,Provincie Luik
356.0,,Bld. du jardin botanique,,1000,Bruxelles,Bruxelles-brussel,,,,,"Bld. du jardin botanique, 1000 Bruxelles, Bruxelles-brussel",50.8546109,4.3606333,49.69811,5.38479,Provincie Luxemburg
357.0,,Ch. st-joseph,4.0,1440,Braine-le-château,Brabant wallon,,,,,"Ch. st-joseph, 1440 Braine-le-château, Brabant wallon",50.6715622,4.3055208,51.130123,2.758848,Provincie West-Vlaanderen
358.0,,Rue des boignées,13.0,1440,Wauthier-braine,Brabant wallon,,,,,"Rue des boignées, 1440 Wauthier-braine, Brabant wallon",50.6737108,4.3023311,51.20832333333333,4.41833,Provincie Antwerpen
359.0,,Rue de l institut,8.0,6040,Jumet,Hainaut,,,,,"Rue de l institut, 6040 Jumet, Hainaut",50.44272489999999,4.4370311,50.883646,4.478359,Provincie Vlaams-Brabant
360.0,,Rue de bricgniot,196.0,5002,Saint-servais,Namur,,,,,"Rue de bricgniot, 5002 Saint-servais, Namur",50.4818182,4.8266295,50.61121,5.74815,Provincie Luik
361.0,,Rue sur les bois,113.0,4870,Fraipont,Liège,,,,,"Rue sur les bois, 4870 Fraipont, Liège",50.5608393,5.746647,50.9559795,4.230994166666667,Provincie Vlaams-Brabant
362.0,,Rue de l hydrion 108l,108.0,6700,Arlon,Luxembourg,,,,,"Rue de l hydrion 108l, 6700 Arlon, Luxembourg",49.6836918,5.7942668,50.97212,5.45791,Provincie Limburg
364.0,,Place des sports,3.0,1348,Louvain-la-neuve,Brabant wallon,,,,,"Place des sports, 1348 Louvain-la-neuve, Brabant wallon",50.670199,4.6014444,51.205264666666665,3.214786666666667,Provincie West-Vlaanderen
365.0,,Rue de la marlette,3.0,7180,Seneffe,Hainaut,,,,,"Rue de la marlette, 7180 Seneffe, Hainaut",50.5083586,4.2686247,51.2544,4.52824,Provincie Antwerpen
366.0,,Av. de la sapinette,3.0,7000,Mons,Hainaut,,,,,"Av. de la sapinette, 7000 Mons, Hainaut",50.4668862,3.9417508,49.57056,5.528185,Provincie Luxemburg
367.0,,Av. du lac ,56.0,7640,Antoing,Hainaut,,,,,"Av. du lac , 7640 Antoing, Hainaut",50.5455338,3.4469539,51.07628,4.72567,Provincie Antwerpen
368.0,,Av. amédée hesse,41.0,4900,Spa,Liège,,,,,"Av. amédée hesse, 4900 Spa, Liège",50.4980027,5.8808452,51.32281,5.10734,Provincie Antwerpen
369.0,,Ile de campana,,4030,Grivegnée,Liège,,,,,"Ile de campana, 4030 Grivegnée, Liège",50.5979533,5.592257099999999,50.64902,4.36669,Provincie Waals-Brabant
370.0,,Allée des sports,63.0,4000,Liège,Liège,,,,,"Allée des sports, 4000 Liège, Liège",50.5772729,5.5690988,50.706135,5.441095000000001,Provincie Luik
371.0,,Allée du stade,3.0,5100,Jambes,Namur,,,,,"Allée du stade, 5100 Jambes, Namur",50.4564594,4.8739337,50.26137,4.91822,Provincie Namen
372.0,,Rue chéravoie,2.0,6840,Neufchâteau,Luxembourg,,,,,"Rue chéravoie, 6840 Neufchâteau, Luxembourg",49.8408789,5.4334105,50.24767,4.608263333333333,Provincie Namen
373.0,,Site de l eau d heure,4.0,6440,Froidchapelle,Hainaut,,,,,"Site de l eau d heure, 6440 Froidchapelle, Hainaut",50.1857528,4.3823302,50.82056,5.17801,Provincie Limburg
374.0,,Allée des sports,12.0,6280,Loverval,Hainaut,,,,,"Allée des sports, 6280 Loverval, Hainaut",50.3708294,4.4721495,51.467103333333334,4.462393333333334,Provincie Antwerpen
375.0,,Rue du liry,21.0,6810,Chiny,Luxembourg,,,,,"Rue du liry, 6810 Chiny, Luxembourg",49.7371728,5.3463578,50.4427,4.64141,Provincie Namen
376.0,,Chée de wavre,2057.0,1160,Bruxelles,Bruxelles-brussel,,,,,"Chée de wavre, 1160 Bruxelles, Bruxelles-brussel",50.821486,4.4066304,51.32007333333333,4.933403333333334,Provincie Antwerpen
377.0,,Av. mounier,87.0,1200,Bruxelles,Bruxelles-brussel,,,,,"Av. mounier, 1200 Bruxelles, Bruxelles-brussel",50.8507765,4.4537123,49.56213,5.830145,Provincie Luxemburg
378.0,,Rue des grives,53.0,1070,Bruxelles,Bruxelles-brussel,,,,,"Rue des grives, 1070 Bruxelles, Bruxelles-brussel",50.8165794,4.2971445,50.453955,4.16324,Provincie Henegouwen
379.0,,Omer vanaudenhovelaan,48.0,3290,Diest,Vlaams-brabant,,Y,,,"Omer vanaudenhovelaan, 3290 Diest, Vlaams-brabant",50.9856745,5.0621823,50.79822,5.63305,Provincie Limburg
380.0,,Fabriekstraat,,3980,Tessenderlo,Limburg,,,,,"Fabriekstraat, 3980 Tessenderlo, Limburg",50.818084,5.1730648,51.17059,3.6957625,Provincie Oost-Vlaanderen
381.0,,Pastorijstraat ,118.0,3300,Tienen,Vlaams-brabant,,Y,,,"Pastorijstraat , 3300 Tienen, Vlaams-brabant",50.7886517,4.9198733,51.209508,2.921247,Provincie West-Vlaanderen
383.0,,Brand whitlocklaan,165.0,1200,Brussel,Bruxelles-brussel,,,,,"Brand whitlocklaan, 1200 Brussel, Bruxelles-brussel",50.8422687,4.4061025,51.172836,4.1393165,Provincie Oost-Vlaanderen
384.0,,Gobelinstraat,3.0,9700,Oudenaarde,Oost-vlaanderen,,,,,"Gobelinstraat, 9700 Oudenaarde, Oost-vlaanderen",50.8483672,3.6026861,50.50224333333333,5.09123,Provincie Namen
385.0,,Kolonel begaultlaan ,15.0,3012,Wilsele,Vlaams-brabant,,,,,"Kolonel begaultlaan , 3012 Wilsele, Vlaams-brabant",50.8958652,4.7062523,50.9365775,3.98061775,Provincie Oost-Vlaanderen
387.0,,Beeldhouwkunstlaan,,1700,Dilbeek,Vlaams-brabant,,N,,,"Beeldhouwkunstlaan, 1700 Dilbeek, Vlaams-brabant",50.84208,4.2795,50.17885,4.46019,Provincie Namen
389.0,,Kapelstraat,100.0,9100,Sint-niklaas,Oost-vlaanderen,,Y,,,"Kapelstraat, 9100 Sint-niklaas, Oost-vlaanderen",51.1507477,4.1539129,50.971529,4.6419245,Provincie Vlaams-Brabant
390.0,,Vierwegstraat,194.0,8800,Roeselare,West-vlaanderen,,,,,"Vierwegstraat, 8800 Roeselare, West-vlaanderen",50.949417,3.1488381,50.94283,5.36733,Provincie Limburg
396.0,,Paderstraat ,158.0,8620,Nieuwpoort,West-vlaanderen,,,,,"Paderstraat , 8620 Nieuwpoort, West-vlaanderen",51.1153091,2.772014,50.42371,3.82648,Provincie Henegouwen
398.0,,Haarlebeek,3.0,2275,Lille,Antwerpen,,,,,"Haarlebeek, 2275 Lille, Antwerpen",51.2835329,4.827163,51.13872666666667,5.592466666666667,Provincie Limburg
399.0,,Pedro colomalaan,25.0,2880,Bornem,Antwerpen,,,,,"Pedro colomalaan, 2880 Bornem, Antwerpen",51.0921553,4.2518637,50.802317,4.223123,Provincie Vlaams-Brabant
403.0,,Parc industriel zone a,,7011,Ghlin,Hainaut,,,,,"Parc industriel zone a, 7011 Ghlin, Hainaut",50.4795587,3.8959785,51.217181,3.574269,Provincie Oost-Vlaanderen
404.0,,Wiemesmeerstraat ,105.0,3600,Genk,Limburg,,Y,,,"Wiemesmeerstraat , 3600 Genk, Limburg",50.9803234,5.5471722,50.39675,4.4263,Provincie Henegouwen
407.0,,Schurhovenveld ,4820.0,3800,Sint-truiden,Limburg,,,,,"Schurhovenveld , 3800 Sint-truiden, Limburg",50.8019192,5.2202655,51.068813,3.100545,Provincie West-Vlaanderen
409.0,,Vlasland,4.0,2260,Westerlo,Antwerpen,,Y,,,"Vlasland, 2260 Westerlo, Antwerpen",51.0958701,4.8698926,51.3344,4.3619,Provincie Antwerpen
411.0,,Vlieghavenlaan,50.0,3140,Keerbergen,Vlaams-brabant,,,,,"Vlieghavenlaan, 3140 Keerbergen, Vlaams-brabant",51.0047679,4.6706963,50.71961,4.61718,Provincie Waals-Brabant
414.0,,Slachthuislaan,74.0,2060,Antwerpen,Antwerpen,,,,,"Slachthuislaan, 2060 Antwerpen, Antwerpen",51.2316399,4.4338623,50.724852,4.869476,Provincie Waals-Brabant
415.0,,Elzen,145.0,3920,Lommel,Limburg,,,,,"Elzen, 3920 Lommel, Limburg",51.2552993,5.3272894,50.63363,3.76851,Provincie Henegouwen
417.0,,Arianelaan,5.0,1200,Brussel,Bruxelles-brussel,,,,,"Arianelaan, 1200 Brussel, Bruxelles-brussel",50.85818,4.43229,50.8072605,3.0689434999999996,Provincie West-Vlaanderen
418.0,,Stift,2.0,3960,Bree,Limburg,,,,,"Stift, 3960 Bree, Limburg",51.1445658,5.5974651,51.06019333333333,4.57685,Provincie Antwerpen
419.0,,Katjeswilgenlaan ,,3010,Kessel-lo,Vlaams-brabant,,N,,,"Katjeswilgenlaan , 3010 Kessel-lo, Vlaams-brabant",50.8936461,4.7186837,50.92355,4.410058666666667,Provincie Vlaams-Brabant
420.0,,Weerstandlaan,24.0,2660,Hoboken,Antwerpen,,,,,"Weerstandlaan, 2660 Hoboken, Antwerpen",51.1862705,4.3705094,50.879651,3.8149745,Provincie Oost-Vlaanderen
421.0,,Citadelpark ,,9000,Gent,Oost-vlaanderen,,,,,"Citadelpark , 9000 Gent, Oost-vlaanderen",51.0390299,3.7237006,51.05610525,3.27145475,Provincie West-Vlaanderen
422.0,,Citadelpark ,,9000,Gent,Oost-vlaanderen,,,,,"Citadelpark , 9000 Gent, Oost-vlaanderen",51.0390299,3.7237006,51.003337,3.6389955,Provincie Oost-Vlaanderen
423.0,,Citadelpark ,,9000,Gent,Oost-vlaanderen,,,,,"Citadelpark , 9000 Gent, Oost-vlaanderen",51.0390299,3.7237006,50.73,3.32214,Provincie Henegouwen
424.0,,Citadelpark ,,9000,Gent,Oost-vlaanderen,,,,,"Citadelpark , 9000 Gent, Oost-vlaanderen",51.0390299,3.7237006,50.68913,5.25328,Provincie Luik
425.0,,Citadelpark ,,9000,Gent,Oost-vlaanderen,,,,,"Citadelpark , 9000 Gent, Oost-vlaanderen",51.0390299,3.7237006,50.18948,5.5789,Provincie Luxemburg
427.0,,Tervuursevest,101.0,3001,Heverlee,Vlaams-brabant,,,,,"Tervuursevest, 3001 Heverlee, Vlaams-brabant",50.8693841,4.6908514,50.6186,3.5040500000000003,Provincie Henegouwen
428.0,,Speiestraat,32.0,8940,Wervik,West-vlaanderen,,N,,,"Speiestraat, 8940 Wervik, West-vlaanderen",50.780152,3.0487826,51.0971,5.79034,Provincie Limburg
429.0,,Place des sports,1.0,1348,Louvain-la-neuve,Brabant wallon,,Y,,,"Place des sports, 1348 Louvain-la-neuve, Brabant wallon",50.670199,4.6014444,50.47081,4.89752,Provincie Namen
430.0,,Rue du castinia,,1348,Louvain-la-neuve,Brabant wallon,,,,,"Rue du castinia, 1348 Louvain-la-neuve, Brabant wallon",50.6702865,4.6052193,50.47492,5.63262,Provincie Luik
431.0,,Liersestwg.,4.0,2800,Mechelen,Antwerpen,,,,,"Liersestwg., 2800 Mechelen, Antwerpen",51.053569,4.4805214,51.174995,4.345795,Provincie Antwerpen
434.0,,Route st-hubert,1.0,6800,Recogne,Luxembourg,,,,,"Route st-hubert, 6800 Recogne, Luxembourg",49.8569283,5.3981911,50.55775,4.69601,Provincie Namen
436.0,,Vaartstraat,60.0,8710,Wielsbeke,West-vlaanderen,,,,,"Vaartstraat, 8710 Wielsbeke, West-vlaanderen",50.9056165,3.3329446,50.90355,4.557621,Provincie Vlaams-Brabant
437.0,,Ooigemstraat,12.0,8710,Wielsbeke,West-vlaanderen,,,,,"Ooigemstraat, 8710 Wielsbeke, West-vlaanderen",50.9018297,3.3588359,50.857011,2.8861730000000003,Provincie West-Vlaanderen
438.0,,Westerring,15.0,9700,Oudenaarde,Oost-vlaanderen,,,,,"Westerring, 9700 Oudenaarde, Oost-vlaanderen",50.8600356,3.5965213,50.780602,3.880994,Provincie Oost-Vlaanderen
445.0,,Nazarethsesteenweg,77.0,9800,Astene,Oost-vlaanderen,,N,,,"Nazarethsesteenweg, 9800 Astene, Oost-vlaanderen",50.9741866,3.572166,50.8099807248,4.41681175132,Brussels Hoofdstedelijk Gewest
450.0,,Lamorinierestraat,,2018,Antwerpen,Antwerpen,,Y,,,"Lamorinierestraat, 2018 Antwerpen, Antwerpen",51.2035955,4.420659,50.847098,3.279314,Provincie West-Vlaanderen
451.0,,Riderveldlaan,5.0,2018,Antwerpen,Antwerpen,,Y,,,"Riderveldlaan, 2018 Antwerpen, Antwerpen",51.188255,4.4414872,50.951267666666666,3.1330093333333333,Provincie West-Vlaanderen
452.0,,Nijverheidslaan,7.0,3200,Aarschot,Vlaams-brabant,,,,,"Nijverheidslaan, 3200 Aarschot, Vlaams-brabant",50.9911393,4.8227234,51.059662,2.8932,Provincie West-Vlaanderen
453.0,,Nijverheidslaan,7.0,3200,Aarschot,Vlaams-brabant,,,,,"Nijverheidslaan, 3200 Aarschot, Vlaams-brabant",50.9911393,4.8227234,50.9763705,4.922079,Provincie Vlaams-Brabant
454.0,,Nijverheidslaan,,3200,Aarschot,Vlaams-brabant,,,,,"Nijverheidslaan, 3200 Aarschot, Vlaams-brabant",50.9911393,4.8227234,50.20992,5.90358,Provincie Luxemburg
455.0,,Schaliehoevestraat ,12.0,2220,Heist-op-den-berg,Antwerpen,,,,,"Schaliehoevestraat , 2220 Heist-op-den-berg, Antwerpen",51.0492684,4.7033045,51.0909425,4.9216025,Provincie Antwerpen
456.0,,Nijverheidslaan,7.0,3200,Aarschot,Vlaams-brabant,,,,,"Nijverheidslaan, 3200 Aarschot, Vlaams-brabant",50.9911393,4.8227234,50.66268,5.512836666666667,Provincie Luik
457.0,,Cipaalstraat ,8.0,2440,Geel,Antwerpen,,,,,"Cipaalstraat , 2440 Geel, Antwerpen",51.1523603,4.9949971,51.13332,4.57798,Provincie Antwerpen
458.0,,Erperheidestraat,2.0,3990,Peer,Limburg,,Y,,,"Erperheidestraat, 3990 Peer, Limburg",51.128891,5.5050819,50.71293,5.67689,Provincie Luik
459.0,,Koldamstraat,9.0,1560,Hoeilaart,Vlaams-brabant,,,,,"Koldamstraat, 1560 Hoeilaart, Vlaams-brabant",50.7683734,4.4769566,51.029464,4.06091825,Provincie Oost-Vlaanderen
460.0,,Nekkerspoelstraat,199.0,2800,Mechelen,Antwerpen,,,,,"Nekkerspoelstraat, 2800 Mechelen, Antwerpen",51.0316932,4.4982375,50.6951575,4.1976925000000005,Provincie Waals-Brabant
461.0,,Kruisstraat,54.0,3120,Tremelo,Vlaams-brabant,,,,,"Kruisstraat, 3120 Tremelo, Vlaams-brabant",50.9944506,4.6868767,50.8358876,4.026161,Provincie Oost-Vlaanderen
466.0,,Av. de burlet,4.0,1400,Nivelles,Brabant wallon,,,,,"Av. de burlet, 1400 Nivelles, Brabant wallon",50.6012326,4.3321286,50.4593,4.79288,Provincie Namen
468.0,,Zeypestraat,26.0,1910,Kampenhout,Vlaams-brabant,,Y,,,"Zeypestraat, 1910 Kampenhout, Vlaams-brabant",50.9514219,4.563022,51.082754,3.829553,Provincie Oost-Vlaanderen
469.0,,Bergtorfbroeklaan,,1910,Kampenhout,Vlaams-brabant,,Y,,,"Bergtorfbroeklaan, 1910 Kampenhout, Vlaams-brabant",50.9338827,4.5605498,51.18761,5.1199200000000005,Provincie Antwerpen
470.0,,Kerkstraat,34.0,1910,Kampenhout,Vlaams-brabant,,Y,,,"Kerkstraat, 1910 Kampenhout, Vlaams-brabant",50.9394142,4.5486243,50.843466,3.490525,Provincie West-Vlaanderen
471.0,,Steenweg op zevendonk ,18.0,2300,Turnhout,Antwerpen,,Y,,,"Steenweg op zevendonk , 2300 Turnhout, Antwerpen",51.3050618,4.9501904,51.05536333333333,5.38495,Provincie Limburg
472.0,,Uilenbaan,15.0,2160,Wommelgem,Antwerpen,,,,,"Uilenbaan, 2160 Wommelgem, Antwerpen",51.213423,4.51271,51.39019,4.58122,Provincie Antwerpen
473.0,,Reep,1.0,9000,Gent,Oost-vlaanderen,,Y,,,"Reep, 9000 Gent, Oost-vlaanderen",51.0525666,3.7295712,50.03322,5.5287,Provincie Luxemburg
474.0,,Vlamingenstraat,83.0,3000,Leuven,Vlaams-brabant,,Y,,,"Vlamingenstraat, 3000 Leuven, Vlaams-brabant",50.8750887,4.7034278,51.040025,5.235530000000001,Provincie Limburg
475.0,,Steenweg op tielen ,51.0,2300,Turnhout,Antwerpen,,Y,,,"Steenweg op tielen , 2300 Turnhout, Antwerpen",51.2984995,4.9329758,50.02628,4.33929,Provincie Henegouwen
476.0,,Cathilleweg t,38.0,8490,Jabbeke,West-vlaanderen,,,,,"Cathilleweg t, 8490 Jabbeke, West-vlaanderen",51.215602,3.0710999,50.851044733,4.3554092519,Brussels Hoofdstedelijk Gewest
477.0,,Sarkoheemstraa,2.0,8490,Jabbeke,West-vlaanderen,,,,,"Sarkoheemstraa, 8490 Jabbeke, West-vlaanderen",51.1662976,3.070942,51.34768475,3.28610375,Provincie West-Vlaanderen
478.0,,Oude dorpweg,58.0,8490,Jabbeke,West-vlaanderen,,,,,"Oude dorpweg, 8490 Jabbeke, West-vlaanderen",51.1868021,3.1436888,50.58263,5.64013,Provincie Luik
479.0,,Eernegemweg  ,,8490,Jabbeke,West-vlaanderen,,,,,"Eernegemweg  , 8490 Jabbeke, West-vlaanderen",51.1637576,3.1043331,50.58166,4.06424,Provincie Henegouwen
480.0,,Dorpsstraat,,8490,Jabbeke,West-vlaanderen,,,,,"Dorpsstraat, 8490 Jabbeke, West-vlaanderen",51.1822325,3.0915085,50.345373333333335,4.262256666666667,Provincie Henegouwen
485.0,,Parklaan ,,2300,Turnhout,Antwerpen,,N,,,"Parklaan , 2300 Turnhout, Antwerpen",51.3125859,4.9454041,50.21160999999999,4.81286,Provincie Namen
488.0,,Motstraat,32.0,2800,Mechelen,Antwerpen,,,,,"Motstraat, 2800 Mechelen, Antwerpen",51.0144121,4.4919669,50.77683,5.321955,Provincie Limburg
489.0,,Zeutestraat ,5.0,2800,Mechelen,Antwerpen,,,,,"Zeutestraat , 2800 Mechelen, Antwerpen",51.01104,4.492018,51.31248471428571,3.123753571428572,Provincie West-Vlaanderen
490.0,,Rue de chassart,38.0,1495,Marbais,Brabant wallon,,,,,"Rue de chassart, 1495 Marbais, Brabant wallon",50.52931,4.5204811,51.087906,3.601508,Provincie Oost-Vlaanderen
491.0,,Squaire marie-curie,40.0,1070,Bruxelles,Bruxelles-brussel,,,,,"Squaire marie-curie, 1070 Bruxelles, Bruxelles-brussel",50.821763,4.2850474,50.31001,4.11666,Provincie Henegouwen
492.0,,Rue osseghem,53.0,1080,Bruxelles,Bruxelles-brussel,,,,,"Rue osseghem, 1080 Bruxelles, Bruxelles-brussel",50.8542413,4.3180183,50.74780766666667,5.081114666666667,Provincie Vlaams-Brabant
493.0,,Industriepark nederwest oost,,9400,Meerbeke,Oost-vlaanderen,,,,,"Industriepark nederwest oost, 9400 Meerbeke, Oost-vlaanderen",50.8238384,4.0407347,51.24912,5.31615,Provincie Limburg
494.0,,Broekaai ,13.0,1731,Zellik,Vlaams-brabant,,,,,"Broekaai , 1731 Zellik, Vlaams-brabant",50.88449,4.27401,51.081953,3.43885,Provincie Oost-Vlaanderen
495.0,,Avenue herman debroux,42.0,1160,Bruxelles,Bruxelles-brussel,,,,,"Avenue herman debroux, 1160 Bruxelles, Bruxelles-brussel",50.8127249,4.430998,50.6035,5.39524,Provincie Luik
496.0,,Rue des pieds d alouettes,12.0,5100,Naninne,Namur,,,,,"Rue des pieds d alouettes, 5100 Naninne, Namur",50.4255793,4.925424,51.082428666666665,3.71591,Provincie Oost-Vlaanderen
498.0,,Laarstraat,16.0,2610,Wilrijk,Antwerpen,,,,,"Laarstraat, 2610 Wilrijk, Antwerpen",51.1758414,4.3961602,49.85515,5.26186,Provincie Luxemburg
500.0,,Route de glons,1.0,4452,Paifve,Liège,,,,,"Route de glons, 4452 Paifve, Liège",50.7330112,5.5244842,51.19643,4.4602675,Provincie Antwerpen
509.0,,Nieuwevaart,51.0,9000,Gent,Oost-vlaanderen,,N,,,"Nieuwevaart, 9000 Gent, Oost-vlaanderen",51.0666491,3.7144627,50.88198,5.61218,Provincie Limburg
510.0,,Allée du bol d air,13.0,4317,Angleur,Liège,,,,,"Allée du bol d air, 4317 Angleur, Liège",50.579098,5.5510966,50.884653,4.2737155,Provincie Vlaams-Brabant
517.0,,Nijverheidsstraat,7.0,2260,Westerlo,Antwerpen,,Y,,,"Nijverheidsstraat, 2260 Westerlo, Antwerpen",51.1401185,4.9156547,51.39373,5.01474,Provincie Antwerpen
518.0,,Boomsestweg,957.0,2610,Wilrijk,Antwerpen,,,,,"Boomsestweg, 2610 Wilrijk, Antwerpen",51.1683102,4.3942868,51.13604,4.8379,Provincie Antwerpen
519.0,,Ingberthoeveweg ,7.0,2630,Aartselaar,Antwerpen,,,,,"Ingberthoeveweg , 2630 Aartselaar, Antwerpen",51.148354,4.3959671,50.172,5.20839,Provincie Namen
520.0,,Boomsestwg.,957.0,2610,Wilrijk,Antwerpen,,,,,"Boomsestwg., 2610 Wilrijk, Antwerpen",51.1655137,4.3859424,49.68685,5.82255,Provincie Luxemburg
521.0,,Boomsestwg. ,957.0,2610,Wilrijk,Antwerpen,,,,,"Boomsestwg. , 2610 Wilrijk, Antwerpen",51.1655137,4.3859424,50.07612,4.50899,Provincie Namen
525.0,,Weg nr. bre,2.0,3660,Opglabbeek,Limburg,,,,,"Weg nr. bre, 3660 Opglabbeek, Limburg",51.0528091,5.5862355,50.905558,4.350466333333333,Provincie Vlaams-Brabant
526.0,,Klaproosstraat ,12.0,2340,Beerse,Antwerpen,,,,,"Klaproosstraat , 2340 Beerse, Antwerpen",51.3262301,4.8661835,50.49189333333334,5.859056666666667,Provincie Luik
530.0,,Herbesthalerstrasse,325.0,4700,Eupen,Liège,,,,,"Herbesthalerstrasse, 4700 Eupen, Liège",50.6405539,6.0144068,50.986041,4.786199,Provincie Vlaams-Brabant
531.0,,Bld. du souverain,25.0,1170,Bruxelles,Bruxelles-brussel,,,,,"Bld. du souverain, 1170 Bruxelles, Bruxelles-brussel",50.8057269,4.4266179,50.44942,5.41934,Provincie Luik
532.0,,Grotesteenweg,214.0,2600,Berchem,Antwerpen,,,,,"Grotesteenweg, 2600 Berchem, Antwerpen",51.1878683,4.4272324,50.72294333333333,4.388326666666667,Provincie Waals-Brabant
533.0,,Rue du trône ,1.0,1000,Bruxelles,Bruxelles-brussel,,,,,"Rue du trône , 1000 Bruxelles, Bruxelles-brussel",50.8365145,4.3706329,50.42788,6.20195,Provincie Luik
534.0,,Av. marcel thiry,208.0,1200,Bruxelles,Bruxelles-brussel,,,,,"Av. marcel thiry, 1200 Bruxelles, Bruxelles-brussel",50.8566024,4.4326714,50.8100516,4.9317038,Provincie Vlaams-Brabant
535.0,,Site philips-ubicenter,208.0,3000,Leuven,Vlaams-brabant,,,,,"Site philips-ubicenter, 3000 Leuven, Vlaams-brabant",50.8670637,4.7127525,50.820065,4.508782,Provincie Vlaams-Brabant
536.0,,Grote steenweg ,214.0,2600,Berchem,Antwerpen,,,,,"Grote steenweg , 2600 Berchem, Antwerpen",51.1878683,4.4272324,50.715655,6.004615,Provincie Luik
537.0,,Oktrooiplein ,1.0,9000,Gent,Oost-vlaanderen,,,,,"Oktrooiplein , 9000 Gent, Oost-vlaanderen",51.0566325,3.738419,50.58978,4.91241,Provincie Namen
538.0,,Rue joffre ,12.0,4000,Liège,Liège,,,,,"Rue joffre , 4000 Liège, Liège",50.6442185,5.5721817,50.994335,3.797791,Provincie Oost-Vlaanderen
539.0,,Blvd. audent,,4000,Liège,Liège,,,,,"Blvd. audent, 4000 Liège, Liège",50.63507569999999,5.5628874,50.478179999999995,4.05633,Provincie Henegouwen
540.0,,Rue d othée,214.0,4432,Alleur,Liège,,,,,"Rue d othée, 4432 Alleur, Liège",50.6654865,5.5304811,51.0116415,4.298232499999999,Provincie Vlaams-Brabant
542.0,,Ch. de mariemon,100.0,7140,Morlanwelz,Hainaut,,,,,"Ch. de mariemon, 7140 Morlanwelz, Hainaut",50.4617936,4.2335352,50.66448,4.587165,Provincie Waals-Brabant
543.0,,Rue ducale,1.0,1000,Bruxelles,Bruxelles-brussel,,,,,"Rue ducale, 1000 Bruxelles, Bruxelles-brussel",50.8445778,4.3660574,50.814212,3.174237,Provincie West-Vlaanderen
545.0,,Av. de la couronne,6.0,1050,Bruxelles,Bruxelles-brussel,,,,,"Av. de la couronne, 1050 Bruxelles, Bruxelles-brussel",50.8244627,4.3855985,50.57838,4.45556,Provincie Waals-Brabant
550.0,,Leuvensesteenweg ,5.0,3080,Tervuren,Vlaams-brabant,,,,,"Leuvensesteenweg , 3080 Tervuren, Vlaams-brabant",50.8354943,4.5347508,51.032294,4.162333,Provincie Oost-Vlaanderen
564.0,,Boechhoutlaan,55.0,1853,Strombeek-bever,Vlaams-brabant,U gebouw achteraan onze site – koffie area – re tegen de muur,,,,"Boechhoutlaan, 1853 Strombeek-bever, Vlaams-brabant",50.9110739,4.3411381,50.36707,3.88225,Provincie Henegouwen
565.0,,Temselaan,100.0,1853,Strombeek-bever,Vlaams-brabant,,,,,"Temselaan, 1853 Strombeek-bever, Vlaams-brabant",50.9031431,4.342614,51.103195,4.3824000000000005,Provincie Antwerpen
566.0,,Rue maestricht,,4651,Battice,Liège,,,,,"Rue maestricht, 4651 Battice, Liège",50.6610407,5.7862934,49.9412,5.02195,Provincie Namen
568.0,,Nijverheidsstraat,9.0,2260,Oevel,Antwerpen,,Y,,,"Nijverheidsstraat, 2260 Oevel, Antwerpen",51.1401185,4.9156547,50.78832,5.4786,Provincie Limburg
569.0,,Lieven bauwensstraa,16.0,8200,Brugge,West-vlaanderen,,,,,"Lieven bauwensstraa, 8200 Brugge, West-vlaanderen",51.214301,3.1962704,49.766605,5.517585,Provincie Luxemburg
570.0,,Wilrijkstraat,8.0,2650,Edegem,Antwerpen,,,,,"Wilrijkstraat, 2650 Edegem, Antwerpen",51.1577113,4.4145674,50.922084,3.457039,Provincie Oost-Vlaanderen
571.0,,Schiepse bo,4.0,3600,Genk,Limburg,,,,,"Schiepse bo, 3600 Genk, Limburg",50.9449125,5.5157016,50.948766,4.051917,Provincie Oost-Vlaanderen
572.0,,Boomkensstraat,303.0,3500,Hasselt,Limburg,,,,,"Boomkensstraat, 3500 Hasselt, Limburg",50.9225396,5.3296581,50.81032543566666,4.319345785533334,Brussels Hoofdstedelijk Gewest
573.0,,Grote markt,,8900,Ieper,West-vlaanderen,,,,,"Grote markt, 8900 Ieper, West-vlaanderen",50.8510787,2.8867695,50.33141,5.26416,Provincie Namen
574.0,,Leopold iii-laan,,8900,Ieper,West-vlaanderen,,,,,"Leopold iii-laan, 8900 Ieper, West-vlaanderen",50.8466147,2.8935223,50.63807,5.56327,Provincie Luik
575.0,,Laarbeeklaan,105.0,1090,Brussel,Bruxelles-brussel,,,,,"Laarbeeklaan, 1090 Brussel, Bruxelles-brussel",50.8857069,4.3140194,50.929675,3.659807,Provincie Oost-Vlaanderen
576.0,,Herestraat,19.0,3000,Leuven,Vlaams-brabant,,,,,"Herestraat, 3000 Leuven, Vlaams-brabant",50.8789643,4.6771965,50.870401,4.1786,Provincie Vlaams-Brabant
577.0,,Motstraat,40.0,2800,Mechelen,Antwerpen,,,,,"Motstraat, 2800 Mechelen, Antwerpen",51.0144121,4.4919669,50.75176,3.47126,Provincie Henegouwen
578.0,,Dirk martensstraat,11.0,8200,Sint-andries,West-vlaanderen,,,,,"Dirk martensstraat, 8200 Sint-andries, West-vlaanderen",51.2099776,3.1976347,51.309913333333334,4.5005033333333335,Provincie Antwerpen
580.0,,A. van dijckstraat,10.0,2300,Turnhout,Antwerpen,,,,,"A. van dijckstraat, 2300 Turnhout, Antwerpen",51.5517425,5.0660107,50.601585,3.619375,Provincie Henegouwen
581.0,,Rue de la carbo,,7333,Tertre,Hainaut,,,,,"Rue de la carbo, 7333 Tertre, Hainaut",50.4777273,3.8063114,50.45981,4.43833,Provincie Henegouwen
582.0,,Rue de la carbo,,7333,Tertre,Hainaut,,,,,"Rue de la carbo, 7333 Tertre, Hainaut",50.4777273,3.8063114,50.588835,4.334785,Provincie Waals-Brabant
583.0,,Chaussée du tubize ,297.0,1420,Braine-l alleud,Brabant wallon,,,,,"Chaussée du tubize , 1420 Braine-l alleud, Brabant wallon",50.6938768,4.3329478,51.242687,4.095224,Provincie Oost-Vlaanderen
585.0,,Boulevard industriel,96.0,7700,Mouscron,Hainaut,,,,,"Boulevard industriel, 7700 Mouscron, Hainaut",50.7484948,3.2456971,51.06962,5.12729,Provincie Limburg
586.0,,Rue de l industrie,44.0,1040,Bruxelles,Bruxelles-brussel,,,,,"Rue de l industrie, 1040 Bruxelles, Bruxelles-brussel",50.8422361,4.3698809,50.39581,4.52718,Provincie Henegouwen
587.0,,Rue royale ,100.0,1000,Bruxelles,Bruxelles-brussel,,,,,"Rue royale , 1000 Bruxelles, Bruxelles-brussel",50.8503534,4.3641739,50.281605,6.126605,Provincie Luik
588.0,,Rue de la papeterie,,6760,Virton,Luxembourg,,,,,"Rue de la papeterie, 6760 Virton, Luxembourg",49.556564,5.5112138,51.194036,3.271442,Provincie West-Vlaanderen
592.0,,Avenue de la joyeuse entrée,,1040,Bruxelles,Bruxelles-brussel,,Y,,,"Avenue de la joyeuse entrée, 1040 Bruxelles, Bruxelles-brussel",50.8421969,4.3862505,51.08571,5.69433,Provincie Limburg
594.0,,Dorpsstraat,15.0,3910,Neerpelt,Limburg,,,,,"Dorpsstraat, 3910 Neerpelt, Limburg",51.2267185,5.485717,50.38902,3.75448,Provincie Henegouwen
595.0,,Toekomstlaan,,3910,Neerpelt,Limburg,,,,,"Toekomstlaan, 3910 Neerpelt, Limburg",51.2320141,5.4248886,51.31419,4.85383,Provincie Antwerpen
596.0,,Grote heide ,14.0,3910,Neerpelt,Limburg,,,,,"Grote heide , 3910 Neerpelt, Limburg",51.2590747,5.4372306,50.8969925,4.826556,Provincie Vlaams-Brabant
597.0,,Herent,139.0,3910,Neerpelt,Limburg,,,,,"Herent, 3910 Neerpelt, Limburg",51.20016,5.44198,50.848113,2.717483,Provincie West-Vlaanderen
601.0,,Rue de trèves ,82.0,1040,Bruxelles,Bruxelles-brussel,,,,,"Rue de trèves , 1040 Bruxelles, Bruxelles-brussel",50.8407211,4.3741162,51.1793155,2.7945195,Provincie West-Vlaanderen
605.0,,Av. salomé,2.0,1150,Bruxelles,Bruxelles-brussel,,Y,,,"Av. salomé, 1150 Bruxelles, Bruxelles-brussel",50.8326219,4.4564887,50.942085,5.156835,Provincie Limburg
606.0,,Groot begijnhof,14.0,3000,Leuven,Vlaams-brabant,,Y,,,"Groot begijnhof, 3000 Leuven, Vlaams-brabant",50.8713296,4.6969825,50.32857,4.45021,Provincie Henegouwen
607.0,,Ottergemsesteenweg,413.0,9000,Gent,Oost-vlaanderen,,,,,"Ottergemsesteenweg, 9000 Gent, Oost-vlaanderen",51.0265987,3.733343,50.770709,4.504941,Provincie Vlaams-Brabant
608.0,,Albrechtlaan,117.0,9300,Aalst,Oost-vlaanderen,,,,,"Albrechtlaan, 9300 Aalst, Oost-vlaanderen",50.9372514,4.0543804,50.834517,5.100423,Provincie Vlaams-Brabant
609.0,,Zone industrielle c ,,7181,Feluy,Hainaut,,,,,"Zone industrielle c , 7181 Feluy, Hainaut",50.562207,4.250265,51.13591,5.446685,Provincie Limburg
610.0,,Rue de l industrie ,4.0,1400,Nivelles,Brabant wallon,,,,,"Rue de l industrie , 1400 Nivelles, Brabant wallon",50.5878535,4.3564561,51.15893,4.210315,Provincie Oost-Vlaanderen
612.0,,St. pietersnieuwstraat ,23.0,9000,Gent,Oost-vlaanderen,,Y,,,"St. pietersnieuwstraat , 9000 Gent, Oost-vlaanderen",51.046071,3.7268916,50.026293333333335,5.361206666666667,Provincie Luxemburg
613.0,,St. pietersnieuwstraat ,23.0,9000,Gent,Oost-vlaanderen,,Y,,,"St. pietersnieuwstraat , 9000 Gent, Oost-vlaanderen",51.046071,3.7268916,50.99783625,3.31972625,Provincie West-Vlaanderen
614.0,,Boulevard de la woluwe,58.0,1200,Bruxelles,Bruxelles-brussel,,Y,,,"Boulevard de la woluwe, 1200 Bruxelles, Bruxelles-brussel",50.8468622,4.4394304,51.085157,2.984457,Provincie West-Vlaanderen
615.0,,Bomastraat,10.0,9000,Gent,Oost-vlaanderen,,,,,"Bomastraat, 9000 Gent, Oost-vlaanderen",51.0616867,3.7316587,51.279923333333336,4.427523333333333,Provincie Antwerpen
616.0,,Belgiëlei,34.0,2018,Antwerpen,Antwerpen,,,,,"Belgiëlei, 2018 Antwerpen, Antwerpen",51.2053497,4.4175914,50.68125,5.84706,Provincie Luik
617.0,,Havenlaan,7.0,3980,Tessenderlo,Limburg,,N,,,"Havenlaan, 3980 Tessenderlo, Limburg",51.069454,5.1577662,51.11527,4.64138,Provincie Antwerpen
620.0,,Rue de la providence ,114.0,6030,Marchienne-au-pont,Hainaut,,Y,,,"Rue de la providence , 6030 Marchienne-au-pont, Hainaut",50.413006,4.4045696,51.036366666666666,4.476083333333333,Provincie Antwerpen
621.0,,Place de l accueil,10.0,1348,Louvain-la-neuve,Brabant wallon,,,,,"Place de l accueil, 1348 Louvain-la-neuve, Brabant wallon",50.670443,4.6161039,51.08294,4.23595,Provincie Antwerpen
623.0,,Weiveldlaan,19.0,1930,Zaventem,Vlaams-brabant,,,,,"Weiveldlaan, 1930 Zaventem, Vlaams-brabant",50.8697359,4.496495,50.84758516475,4.425895823375,Brussels Hoofdstedelijk Gewest
624.0,,Désiré delcroixstraat,,9800,Deinze,Oost-vlaanderen,,,,,"Désiré delcroixstraat, 9800 Deinze, Oost-vlaanderen",50.985274,3.5389584,50.544799999999995,5.3165949999999995,Provincie Luik
627.0,,Rue g. d orange,168.0,4100,Seraing,Liège,,,,,"Rue g. d orange, 4100 Seraing, Liège",50.5974128,5.5301873,50.69624,4.049743333333333,Provincie Henegouwen
629.0,,Onder den toren  ,5.0,2800,Mechelen,Antwerpen,,,,,"Onder den toren  , 2800 Mechelen, Antwerpen",51.0286956,4.4781156,50.79719999999999,4.353769999999999,Brussels Hoofdstedelijk Gewest
630.0,,Quai de willebroeck,35.0,1000,Bruxelles,Bruxelles-brussel,,Y,,,"Quai de willebroeck, 1000 Bruxelles, Bruxelles-brussel",50.8623387,4.3521206,50.64079,5.63494,Provincie Luik
631.0,,Koning albert i  laan  ,8.0,8200,Brugge,West-vlaanderen,,Y,,,"Koning albert i  laan  , 8200 Brugge, West-vlaanderen",51.1849389,3.207812,50.295496,5.099284,Provincie Namen
632.0,,Boudewijnstraat,4.0,2280,Grobbendonk,Antwerpen,,,,,"Boudewijnstraat, 2280 Grobbendonk, Antwerpen",51.1894064,4.738653,50.76388,4.68721,Provincie Waals-Brabant
633.0,,Molendreef ,8.0,2280,Grobbendonk,Antwerpen,,Y,,,"Molendreef , 2280 Grobbendonk, Antwerpen",51.1632537,4.7457069,50.8989265,3.8989355,Provincie Oost-Vlaanderen
729.0,,Boulevard roi albert ii ,,1210,Bruxelles,Bruxelles-brussel,,,,,"Boulevard roi albert ii , 1210 Bruxelles, Bruxelles-brussel",50.8580726,4.3559479,49.95846,4.92437,Provincie Namen
730.0,,Karmelietenstraat,15.0,1000,Bruxelles,Bruxelles-brussel,,,,,"Karmelietenstraat, 1000 Bruxelles, Bruxelles-brussel",50.8400335,4.3582917,51.15981,4.988576666666667,Provincie Antwerpen
731.0,,Kleine zavel ,8.0,1000,Brussel,Bruxelles-brussel,,,,,"Kleine zavel , 1000 Brussel, Bruxelles-brussel",50.8396246,4.3568894,50.54609,4.97603,Provincie Namen
732.0,,Karmelietenstraat,,1000,Brussel,Bruxelles-brussel,,,,,"Karmelietenstraat, 1000 Brussel, Bruxelles-brussel",50.8400335,4.3582917,50.56498333333333,3.45704,Provincie Henegouwen
733.0,,Place de l université ,1.0,1348,Louvain-la-neuve,Brabant wallon,,,,,"Place de l université , 1348 Louvain-la-neuve, Brabant wallon",50.6699575,4.6155173,51.47072333333333,4.800783333333333,Provincie Antwerpen
734.0,,Daelemveld ,1002.0,3540,Herk-de-stad,Limburg,,Y,,,"Daelemveld , 3540 Herk-de-stad, Limburg",50.9483127,5.1625252,50.37793,4.378245,Provincie Henegouwen
735.0,,Avenue charles thielemans,93.0,1150,Bruxelles,Bruxelles-brussel,,,,,"Avenue charles thielemans, 1150 Bruxelles, Bruxelles-brussel",50.8367584,4.4280819,51.221115,4.396845,Provincie Antwerpen
739.0,,Kallo 3 ,3.0,9130,Kallo,Oost-vlaanderen,,Y,,,"Kallo 3 , 9130 Kallo, Oost-vlaanderen",51.2526476,4.278681199999999,50.96873,5.503901428571428,Provincie Limburg
740.0,,Nijverheidsstraat,15.0,2260,Oevel,Antwerpen,,Y,,,"Nijverheidsstraat, 2260 Oevel, Antwerpen",51.1401185,4.9156547,51.048406666666665,5.316843333333334,Provincie Limburg
741.0,,Nijverheidsstraat,15.0,2260,Oevel,Antwerpen,,Y,,,"Nijverheidsstraat, 2260 Oevel, Antwerpen",51.1401185,4.9156547,50.37094,5.87142,Provincie Luik
742.0,,Onkerzelestraat,280.0,9500,Geraardsbergen,Oost-vlaanderen,,Y,,,"Onkerzelestraat, 9500 Geraardsbergen, Oost-vlaanderen",50.782612,3.911492,50.35444,5.493805,Provincie Luxemburg
744.0,,Parc industriel,,4300,Waremme,Liège,,Y,,,"Parc industriel, 4300 Waremme, Liège",50.6900819,5.2760267,50.59722,3.85361,Provincie Henegouwen
745.0,,Chaussée romaine,176.0,4300,Waremme,Liège,,Y,,,"Chaussée romaine, 4300 Waremme, Liège",50.6988226,5.2815773,51.140965,4.451865,Provincie Antwerpen
746.0,,Stadsplein,1.0,3600,Genk,Limburg,,,,,"Stadsplein, 3600 Genk, Limburg",50.9657205,5.496001,51.2608,5.537,Provincie Limburg
747.0,,Markt z/n ,,3980,Tessenderlo,Limburg,,Y,,,"Markt z/n , 3980 Tessenderlo, Limburg",51.0680285,5.0883623,51.012611,4.710362,Provincie Vlaams-Brabant
748.0,,P.a. markt,21.0,9800,Deinze,Oost-vlaanderen,,,,,"P.a. markt, 9800 Deinze, Oost-vlaanderen",50.9852391,3.5259778,49.8258,5.73263,Provincie Luxemburg
749.0,,Avenue de l industrie,1.0,4500,Tihange,Liège,,,,,"Avenue de l industrie, 4500 Tihange, Liège",50.5313735,5.2797855,50.740685,3.608493,Provincie Oost-Vlaanderen
750.0,,Avenue de l industrie ,1.0,4500,Tihange,Liège,,,,,"Avenue de l industrie , 4500 Tihange, Liège",50.5313735,5.2797855,50.30128,4.74811,Provincie Namen
751.0,,Avenue de l industrie ,1.0,4500,Tihange,Liège,,,,,"Avenue de l industrie , 4500 Tihange, Liège",50.5313735,5.2797855,51.013592,3.969358,Provincie Oost-Vlaanderen
752.0,,Av. de l industrie,1.0,4500,Tihange,Liège,,,,,"Av. de l industrie, 4500 Tihange, Liège",50.5313735,5.2797855,50.8140916,3.3402312,Provincie West-Vlaanderen
753.0,,Avenue de l industrie ,1.0,4500,Tihange,Liège,,,,,"Avenue de l industrie , 4500 Tihange, Liège",50.5313735,5.2797855,50.14456,5.15759,Provincie Namen
754.0,,Avenue de l industrie,1.0,4500,Tihange,Liège,,,,,"Avenue de l industrie, 4500 Tihange, Liège",50.5313735,5.2797855,51.24019,4.61749,Provincie Antwerpen
755.0,,Avenue de l industrie,1.0,4500,Tihange,Liège,,,,,"Avenue de l industrie, 4500 Tihange, Liège",50.5313735,5.2797855,50.90949,5.68411,Provincie Limburg
757.0,,Leonardo da vincilaan,4.0,1831,Diegem,Vlaams-brabant,,,,,"Leonardo da vincilaan, 1831 Diegem, Vlaams-brabant",50.8905844,4.4578586,50.90241,5.4608324999999995,Provincie Limburg
758.0,,Chaussée de mons,,7180,Seneffe,Hainaut,,,,,"Chaussée de mons, 7180 Seneffe, Hainaut",50.5207148,4.2503434,49.55776,5.68906,Provincie Luxemburg
759.0,,Waalstraat,18.0,9870,Zulte,Oost-vlaanderen,,,,,"Waalstraat, 9870 Zulte, Oost-vlaanderen",50.9152342,3.4585908,50.799495,4.154996,Provincie Vlaams-Brabant
762.0,,Rue du travail 63,63.0,7000,Mons,Hainaut,,N,,,"Rue du travail 63, 7000 Mons, Hainaut",50.4466723,3.9368853,50.862108,3.61301,Provincie Oost-Vlaanderen
769.0,,Avenue louise 480 ,480.0,1050,Bruxelles,Bruxelles-brussel,,,,,"Avenue louise 480 , 1050 Bruxelles, Bruxelles-brussel",50.8171763,4.3723785,50.494235,4.20004,Provincie Henegouwen
777.0,,Sporthalstraat,12.0,3300,Tienen,Vlaams-brabant,,Y,,,"Sporthalstraat, 3300 Tienen, Vlaams-brabant",50.8198275,4.944348,51.17402,3.858738333333333,Provincie Oost-Vlaanderen
778.0,,Reizegersstraat,81.0,3300,Tienen,Vlaams-brabant,,Y,,,"Reizegersstraat, 3300 Tienen, Vlaams-brabant",50.8029475,4.9427881,50.4782,4.55236,Provincie Henegouwen
779.0,,Rue laid burniat,5.0,1348,Louvain-la-neuve,Brabant wallon,,,,,"Rue laid burniat, 1348 Louvain-la-neuve, Brabant wallon",50.6641533,4.6345853,50.70329,3.82727,Provincie Henegouwen
781.0,,Rue du panorama,57.0,4801,Stembert,Liège,,,,,"Rue du panorama, 4801 Stembert, Liège",50.5896024,5.882936,50.9238725,5.3209575000000005,Provincie Limburg
782.0,,Rue du châtelet,266.0,6030,Marchienne-au-pont,Hainaut,,,,,"Rue du châtelet, 6030 Marchienne-au-pont, Hainaut",50.4062906,4.408139,51.010949499999995,4.36822,Provincie Vlaams-Brabant
783.0,,Rue du châtelet ,266.0,6030,Marchienne-au-pont,Hainaut,,,,,"Rue du châtelet , 6030 Marchienne-au-pont, Hainaut",50.4062906,4.408139,50.57325,5.56756,Provincie Luik
784.0,,Koning albertlaan ,1.0,9840,De,Oost-vlaanderen,,Y,,,"Koning albertlaan , 9840 De, Oost-vlaanderen",50.9948169,3.6505589,50.983899,2.6226855,Provincie West-Vlaanderen
785.0,,Polderbos ,20.0,9840,De,Oost-vlaanderen,,Y,,,"Polderbos , 9840 De, Oost-vlaanderen",50.9916563,3.644104,51.155691,2.9683833333333336,Provincie West-Vlaanderen
789.0,,Boulevard charlemagne ,,1000,Bruxelles,Bruxelles-brussel,,Y,,,"Boulevard charlemagne , 1000 Bruxelles, Bruxelles-brussel",50.8445152,4.3819339,50.11198,5.80675,Provincie Luxemburg
790.0,,Avenue des combattants,35.0,1490,Court-saint-etienne,Brabant wallon,,,,,"Avenue des combattants, 1490 Court-saint-etienne, Brabant wallon",50.6417231,4.5547061,51.18854,4.37291,Provincie Antwerpen
791.0,,Avenue einstein,2.0,1300,Wavre,Brabant wallon,,,,,"Avenue einstein, 1300 Wavre, Brabant wallon",50.7311726,4.588456,51.350495,4.6391,Provincie Antwerpen
792.0,,Rue armand dewolf,2.0,1357,Hélécine,Brabant wallon,,,,,"Rue armand dewolf, 1357 Hélécine, Brabant wallon",50.7492855,4.9693396,51.388022,4.47521,Provincie Antwerpen
794.0,,Chaussée de charleroi ,110.0,1060,Bruxelles,Bruxelles-brussel,,,,,"Chaussée de charleroi , 1060 Bruxelles, Bruxelles-brussel",50.8268062,4.3550128,50.81629233333333,4.624217333333333,Provincie Vlaams-Brabant
795.0,,Rogierplein,11.0,1210,Brussel,Bruxelles-brussel,,,,,"Rogierplein, 1210 Brussel, Bruxelles-brussel",50.8559527,4.359475,51.174795,4.742645,Provincie Antwerpen
796.0,,Galileelaan,5.0,1210,Brussel,Bruxelles-brussel,,,,,"Galileelaan, 1210 Brussel, Bruxelles-brussel",50.852795,4.3669091,50.71127,5.02759,Provincie Luik
797.0,,Pachecolaan,44.0,1000,Brussel,Bruxelles-brussel,,,,,"Pachecolaan, 1000 Brussel, Bruxelles-brussel",50.8520424,4.3623969,50.47028,4.856085,Provincie Namen
798.0,,Rue de bois de four ,,6440,Froidchapelle,Hainaut,,,,,"Rue de bois de four , 6440 Froidchapelle, Hainaut",50.1923643,4.3532168,50.196169999999995,4.55116,Provincie Namen
799.0,,Rue du stade,,6762,Virton,Luxembourg,,Y,,,"Rue du stade, 6762 Virton, Luxembourg",49.5619654,5.5150804,50.739324999999994,4.265834,Provincie Vlaams-Brabant
800.0,,A la cour marchal,8.0,6760,Virton,Luxembourg,,Y,,,"A la cour marchal, 6760 Virton, Luxembourg",49.5662396,5.5374165,50.856304,3.015644,Provincie West-Vlaanderen
801.0,,Rue charles magnette ,17.0,6760,Virton,Luxembourg,,Y,,,"Rue charles magnette , 6760 Virton, Luxembourg",49.5667131,5.5319768,50.982321,3.731912,Provincie Oost-Vlaanderen
802.0,,Rue bollinckx,352.0,1190,Bruxelles,Bruxelles-brussel,,Y,,,"Rue bollinckx, 1190 Bruxelles, Bruxelles-brussel",50.8155291,4.3066644,51.24596,4.88416,Provincie Antwerpen
803.0,,Rue neuve,123.0,1000,Bruxelles,Bruxelles-brussel,,,,,"Rue neuve, 1000 Bruxelles, Bruxelles-brussel",50.8527348,4.3559377,50.87709610300001,4.3408926042,Brussels Hoofdstedelijk Gewest
804.0,,Liersesteenweg,15.0,2640,Mortsel,Antwerpen,,,,,"Liersesteenweg, 2640 Mortsel, Antwerpen",51.1686541,4.4705622,50.842875,3.235671,Provincie West-Vlaanderen
805.0,,Rue jean etienne lenoir,,1348,Louvain-la-neuve,Brabant wallon,,,,,"Rue jean etienne lenoir, 1348 Louvain-la-neuve, Brabant wallon",50.6639013,4.6270095,51.133086,4.068078,Provincie Oost-Vlaanderen
806.0,,Philipssite,5.0,3001,Leuven,Vlaams-brabant,,,,,"Philipssite, 3001 Leuven, Vlaams-brabant",50.8680749,4.7119704,50.847667,4.4665523333333335,Provincie Vlaams-Brabant
807.0,,Louizalaan,222.0,1050,Brussel,Bruxelles-brussel,,,,,"Louizalaan, 1050 Brussel, Bruxelles-brussel",50.824958,4.3659367,50.60843333333333,3.3854166666666665,Provincie Henegouwen
808.0,,Frankrijklei,79.0,2018,Antwerpen,Antwerpen,,,,,"Frankrijklei, 2018 Antwerpen, Antwerpen",51.2151342,4.4127668,50.60887,5.95199,Provincie Luik
809.0,,Industrieweg,150.0,3583,Paal,Limburg,,,,,"Industrieweg, 3583 Paal, Limburg",51.0615727,5.1546685,50.00875,4.14536,Provincie Henegouwen
810.0,,St. cordulastraat,,2900,Schoten,Antwerpen,,,,,"St. cordulastraat, 2900 Schoten, Antwerpen",51.2505979,4.4990429,50.3404,4.6631149999999995,Provincie Namen
811.0,,Spinnerijstraat,100.0,8530,Harelbeke,West-vlaanderen,,Y,,,"Spinnerijstraat, 8530 Harelbeke, West-vlaanderen",50.8297286,3.3005336,50.37286,5.6773,Provincie Luik
812.0,M5066A,Marnixlaan,13.0,1000,Bruxelles,Bruxelles-brussel,,Y,,,"Marnixlaan, 1000 Bruxelles, Bruxelles-brussel",50.8395754,4.3645111,50.50834,3.75354,Provincie Henegouwen
813.0,,Engeland,555.0,1180,Bruxelles,Bruxelles-brussel,,,,,"Engeland, 1180 Bruxelles, Bruxelles-brussel",50.7904904,4.3559193,51.160602999999995,3.236052,Provincie West-Vlaanderen
814.0,,Havenlaan,,1000,Brussel,Bruxelles-brussel,,Y,,,"Havenlaan, 1000 Brussel, Bruxelles-brussel",50.8659203,4.351108,51.094395,4.49631,Provincie Antwerpen
815.0,,Ketenislaan haven ,1500.0,9130,Kallo,Oost-vlaanderen,,,,,"Ketenislaan haven , 9130 Kallo, Oost-vlaanderen",51.273405,4.3038609,51.16196,5.17393,Provincie Antwerpen
822.0,,Neerveldstraat,105.0,1200,Bruxelles,Bruxelles-brussel,,,,,"Neerveldstraat, 1200 Bruxelles, Bruxelles-brussel",50.8508384,4.4408714,50.43212333333333,5.07623,Provincie Namen
823.0,,Hombeeksesteenweg ,323.0,2800,Mechelen,Antwerpen,,,,,"Hombeeksesteenweg , 2800 Mechelen, Antwerpen",51.0168688,4.4658472,50.837119511,4.340102838633333,Brussels Hoofdstedelijk Gewest
824.0,,Eggestraat,1.0,2800,Mechelen,Antwerpen,,,,,"Eggestraat, 2800 Mechelen, Antwerpen",51.0155466,4.4649361,50.82309943825,4.369860541775,Brussels Hoofdstedelijk Gewest
828.0,,Rue du marquis,5.0,6220,Fleurus,Hainaut,,,,,"Rue du marquis, 6220 Fleurus, Hainaut",50.4771076,4.5363885,51.097632,3.89514,Provincie Oost-Vlaanderen
829.0,,Rue du marquis,,6220,Fleurus,Hainaut,,,,,"Rue du marquis, 6220 Fleurus, Hainaut",50.4771076,4.5363885,51.141008,3.3418955,Provincie West-Vlaanderen
831.0,,Avenue du général jadot,11.0,1360,Perwez,Brabant wallon,,Y,,,"Avenue du général jadot, 1360 Perwez, Brabant wallon",50.6216383,4.806159,50.8388742722,4.2925719007000005,Brussels Hoofdstedelijk Gewest
832.0,,Square de fré ,1.0,1180,Bruxelles,Bruxelles-brussel,,,,,"Square de fré , 1180 Bruxelles, Bruxelles-brussel",50.80517,4.348698,50.72902,5.5693,Provincie Luik
833.0,,Rue des sables ,20.0,1000,Bruxelles,Bruxelles-brussel,,,,,"Rue des sables , 1000 Bruxelles, Bruxelles-brussel",50.8510063,4.3598846,50.72469,3.23528,Provincie Henegouwen
834.0,,Bourgetlaan ,42.0,1130,Bruxelles,Bruxelles-brussel,,,,,"Bourgetlaan , 1130 Bruxelles, Bruxelles-brussel",50.8774072,4.4239701,50.665683333333334,5.9712700000000005,Provincie Luik
835.0,,Bourgetlaan,42.0,1130,Bruxelles,Bruxelles-brussel,,,,,"Bourgetlaan, 1130 Bruxelles, Bruxelles-brussel",50.8774072,4.4239701,50.33968,5.36968,Provincie Namen
836.0,,Bourgetlaan ,42.0,1130,Bruxelles,Bruxelles-brussel,,,,,"Bourgetlaan , 1130 Bruxelles, Bruxelles-brussel",50.8774072,4.4239701,49.91271,5.617374999999999,Provincie Luxemburg
837.0,,Bourgetlaan ,42.0,1130,Bruxelles,Bruxelles-brussel,,,,,"Bourgetlaan , 1130 Bruxelles, Bruxelles-brussel",50.8774072,4.4239701,51.131583,4.2877616666666665,Provincie Oost-Vlaanderen
838.0,,Mercuriusstraat,27.0,1930,Nossegem,Vlaams-brabant,,,,,"Mercuriusstraat, 1930 Nossegem, Vlaams-brabant",50.8736072,4.5041554,50.70529,6.06955,Provincie Luik
839.0,,Generaal lemanstraat,69.0,2018,Antwerpen,Antwerpen,,,,,"Generaal lemanstraat, 2018 Antwerpen, Antwerpen",51.1937444,4.4119655,50.4085,3.86303,Provincie Henegouwen
840.0,,Quai des vennes,14.0,4020,Liège,Liège,,,,,"Quai des vennes, 4020 Liège, Liège",50.6162379,5.5944876,50.976559,4.565967,Provincie Vlaams-Brabant
841.0,,Einde were,106.0,9000,Gent,Oost-vlaanderen,,,,,"Einde were, 9000 Gent, Oost-vlaanderen",51.0517963,3.7004794,49.673285,5.561685000000001,Provincie Luxemburg
842.0,,Woluwedal,102.0,1200,Bruxelles,Bruxelles-brussel,,,,,"Woluwedal, 1200 Bruxelles, Bruxelles-brussel",50.8506425,4.4425144,50.813554,3.12087,Provincie West-Vlaanderen
843.0,,Industriepark,3.0,3290,Diest,Vlaams-brabant,,Y,,,"Industriepark, 3290 Diest, Vlaams-brabant",50.9642589,5.0732779,50.63565,3.27383,Provincie Henegouwen
844.0,,Zone industrielle feluy c ,,7181,Seneffe,Hainaut,,,,,"Zone industrielle feluy c , 7181 Seneffe, Hainaut",50.562207,4.250265,49.71111,5.32653,Provincie Luxemburg
845.0,,Havenlaan ,12.0,3980,Tessenderlo,Limburg,,N,,,"Havenlaan , 3980 Tessenderlo, Limburg",51.069454,5.1577662,50.73913,5.70815,Provincie Luik
846.0,Appareil fixe-Vast apparaat,Rue mondron,40.0,6042,Lodelinsart,Hainaut,Salle de contrôle du coater,Non-Nee,Oui-Ja,,"Rue mondron, 6042 Lodelinsart, Hainaut",50.4242791,4.4433343,50.87,5.37947,Provincie Limburg
846.0,Appareil fixe-Vast apparaat,Rue mondron,40.0,6042,Lodelinsart,Hainaut,Salle de contrôle du coater,Non-Nee,Oui-Ja,,"Rue mondron, 6042 Lodelinsart, Hainaut",50.4238963,4.4437681,51.07553333333333,4.805956666666667,Provincie Antwerpen
846.0,,Rue pige-au-croly,157.0,6042,Charleroi,Hainaut,,N,,,"Rue pige-au-croly, 6042 Charleroi, Hainaut",50.4242791,4.4433343,50.738,2.86317,Provincie Henegouwen
846.0,,Rue pige-au-croly,157.0,6042,Charleroi,Hainaut,,N,,,"Rue pige-au-croly, 6042 Charleroi, Hainaut",50.4238963,4.4437681,50.13399,5.28771,Provincie Luxemburg
847.0,Appareil fixe-Vast apparaat,Rue mondron ,40.0,6042,Lodelinsart,Hainaut,Entrée du hall 2 : VIG,Non-Nee,Oui-Ja,,"Rue mondron , 6042 Lodelinsart, Hainaut",50.4242791,4.4433343,50.98670675,4.10836675,Provincie Oost-Vlaanderen
847.0,Appareil fixe-Vast apparaat,Rue mondron ,40.0,6042,Lodelinsart,Hainaut,Entrée du hall 2 : VIG,Non-Nee,Oui-Ja,,"Rue mondron , 6042 Lodelinsart, Hainaut",50.4238963,4.4437681,50.778252,3.393591,Provincie West-Vlaanderen
847.0,,Rue pige-au-croly,157.0,6042,Charleroi,Hainaut,,N,,,"Rue pige-au-croly, 6042 Charleroi, Hainaut",50.4242791,4.4433343,51.057294,3.7503485,Provincie Oost-Vlaanderen
847.0,,Rue pige-au-croly,157.0,6042,Charleroi,Hainaut,,N,,,"Rue pige-au-croly, 6042 Charleroi, Hainaut",50.4238963,4.4437681,50.43845,3.904675,Provincie Henegouwen
848.0,,Pr. kennedypark,2.0,8500,Kortrijk,West-vlaanderen,,,,,"Pr. kennedypark, 8500 Kortrijk, West-vlaanderen",50.8004697,3.2735276,50.981638,4.837336,Provincie Vlaams-Brabant
849.0,,Statiestraat,11.0,2560,Nijlen,Antwerpen,,,,,"Statiestraat, 2560 Nijlen, Antwerpen",51.1603322,4.668745,50.474485,4.699565,Provincie Namen
850.0,,Schoolstraat,30.0,2590,Berlaar,Antwerpen,,,,,"Schoolstraat, 2590 Berlaar, Antwerpen",51.1154117,4.6582165,50.90624366666666,4.308499666666667,Provincie Vlaams-Brabant
861.0,,Schoonmansveld,28.0,2870,Puurs,Antwerpen,,,,,"Schoonmansveld, 2870 Puurs, Antwerpen",51.0649008,4.3338247,50.8775635,4.72833,Provincie Vlaams-Brabant
862.0,,Avenue circulaire,3.0,1180,Bruxelles,Bruxelles-brussel,,Y,,,"Avenue circulaire, 1180 Bruxelles, Bruxelles-brussel",50.7995596,4.3588878,50.41639166666667,4.45181,Provincie Henegouwen
863.0,,Rue de l environnement,8.0,4100,Seraing,Liège,,,,,"Rue de l environnement, 4100 Seraing, Liège",50.61585,5.52205,50.46903,5.71802,Provincie Luik
864.0,,Kapelledreef ,4.0,9960,Assenede,Oost-vlaanderen,,,,,"Kapelledreef , 9960 Assenede, Oost-vlaanderen",51.2304509,3.748816,51.291389,4.163576,Provincie Oost-Vlaanderen
865.0,,Kasteelstraat ,3.0,9960,Assenede,Oost-vlaanderen,,Y,,,"Kasteelstraat , 9960 Assenede, Oost-vlaanderen",51.2254616,3.7531735,50.1256,4.88458,Provincie Namen
866.0,,3è avenue,25.0,4040,Herstal,Liège,,N,,,"3è avenue, 4040 Herstal, Liège",50.6983727,5.6215822,50.5139,3.57474,Provincie Henegouwen
867.0,,Voie de liège ,33.0,4040,Herstal,Liège,,Y,,,"Voie de liège , 4040 Herstal, Liège",50.66867,5.6316,50.427695,5.53101,Provincie Luik
869.0,,Rue du clémarais,,6790,Aubange,Luxembourg,,,,,"Rue du clémarais, 6790 Aubange, Luxembourg",49.5731332,5.7963745,50.909699,4.672755,Provincie Vlaams-Brabant
871.0,,Slakweidestraat,31.0,3630,Maasmechelen,Limburg,,,,,"Slakweidestraat, 3630 Maasmechelen, Limburg",50.9467339,5.702877,49.91633,5.15598,Provincie Luxemburg
873.0,,Rue cardinal mercier,100.0,7711,Dottignies,Hainaut,,Y,,,"Rue cardinal mercier, 7711 Dottignies, Hainaut",50.7232545,3.3047266,51.12566,5.38679,Provincie Limburg
874.0,,Rue père damien ,2.0,7700,Mouscron,Hainaut,,Y,,,"Rue père damien , 7700 Mouscron, Hainaut",50.7472676,3.237287,51.30335,4.566786666666666,Provincie Antwerpen
875.0,,Rue j. dechamps ,9.0,1300,Wavre,Brabant wallon,,,,,"Rue j. dechamps , 1300 Wavre, Brabant wallon",50.6986749,4.5947869,51.00138,5.52383,Provincie Limburg
876.0,,Rue j. dechamps,9.0,1300,Wavre,Brabant wallon,,,,,"Rue j. dechamps, 1300 Wavre, Brabant wallon",50.6986749,4.5947869,51.004445,3.412188,Provincie West-Vlaanderen
877.0,,Avenue de la couronne ,224.0,1050,Bruxelles,Bruxelles-brussel,,,,,"Avenue de la couronne , 1050 Bruxelles, Bruxelles-brussel",50.8244627,4.3855985,51.006213,3.110039,Provincie West-Vlaanderen
878.0,,Prinsenstraat ,3.0,1850,Grimbergen,Vlaams-brabant,,,,,"Prinsenstraat , 1850 Grimbergen, Vlaams-brabant",50.9298193,4.3730144,51.216933999999995,2.8824025,Provincie West-Vlaanderen
881.0,,Avenue bouchout ,10.0,1020,Bruxelles,Bruxelles-brussel,,Y,,,"Avenue bouchout , 1020 Bruxelles, Bruxelles-brussel",50.8933012,4.3378283,50.893142,3.416247,Provincie West-Vlaanderen
882.0,,Zi avenue de spirou ,23.0,6220,Fleurus,Hainaut,,,,,"Zi avenue de spirou , 6220 Fleurus, Hainaut",50.4531115,4.5381477,50.39388,4.28363,Provincie Henegouwen
883.0,,Rue des sols,25.0,1000,Bruxelles,Bruxelles-brussel,,,,,"Rue des sols, 1000 Bruxelles, Bruxelles-brussel",50.8445184,4.3577333,50.970214,2.947783,Provincie West-Vlaanderen
885.0,,Gouverneur bovesse,74.0,5100,Jambes,Namur,,,,,"Gouverneur bovesse, 5100 Jambes, Namur",50.4583078,4.8740431,50.840119666666666,4.081135333333333,Provincie Vlaams-Brabant
886.0,,Port de herstal pré wigi ,20.0,4040,Herstal,Liège,,,,,"Port de herstal pré wigi , 4040 Herstal, Liège",50.682795,5.642453499999999,51.027219,4.983621,Provincie Vlaams-Brabant
887.0,,Avenue oscar jespers,75.0,1200,Bruxelles,Bruxelles-brussel,,Y,,,"Avenue oscar jespers, 1200 Bruxelles, Bruxelles-brussel",50.8581553,4.440731,50.14801,6.1304,Provincie Luik
889.0,,Avenue oscar jespers,75.0,1200,Bruxelles,Bruxelles-brussel,,N,,,"Avenue oscar jespers, 1200 Bruxelles, Bruxelles-brussel",50.8581553,4.440731,50.72102,4.48577,Provincie Waals-Brabant
891.0,,Avenue adile ,1.0,1310,La hulpe,Brabant wallon,,,,,"Avenue adile , 1310 La hulpe, Brabant wallon",50.7348547,4.4816709,51.26409,4.786765,Provincie Antwerpen
892.0,,Avenue solvay ,81.0,1310,La hulpe,Brabant wallon,,,,,"Avenue solvay , 1310 La hulpe, Brabant wallon",50.7397437,4.4844361,50.62586,5.47151,Provincie Luik
893.0,,Avenue solvay ,81.0,1310,La hulpe,Brabant wallon,,Y,,,"Avenue solvay , 1310 La hulpe, Brabant wallon",50.7397437,4.4844361,51.06486,4.66891,Provincie Antwerpen
894.0,,Chaussée de bruxelles ,135.0,1310,La hulpe,Brabant wallon,,,,,"Chaussée de bruxelles , 1310 La hulpe, Brabant wallon",50.7430036,4.4697869,50.8772755,3.732782,Provincie Oost-Vlaanderen
895.0,,Avenue de l astronomie,14.0,1210,Bruxelles,Bruxelles-brussel,,,,,"Avenue de l astronomie, 1210 Bruxelles, Bruxelles-brussel",50.8509179,4.3689028,50.83105,3.94389,Provincie Oost-Vlaanderen
896.0,,Hoogbul ,1.0,2250,Olen,Antwerpen,,Y,,,"Hoogbul , 2250 Olen, Antwerpen",51.1492704,4.8879516,50.46934,4.11186,Provincie Henegouwen
898.0,,Av. ch. thielemans ,93.0,1150,Bruxelles,Bruxelles-brussel,,,,,"Av. ch. thielemans , 1150 Bruxelles, Bruxelles-brussel",50.8286387,4.449434699999999,51.233098,4.463622,Provincie Antwerpen
938.0,,Rue du châtelet,206.0,6030,Marchienne-au-pont,Hainaut,,,,,"Rue du châtelet, 6030 Marchienne-au-pont, Hainaut",50.4062906,4.408139,51.107608,3.7761685,Provincie Oost-Vlaanderen
939.0,,Livingstonelaan,6.0,1000,Brussel,Bruxelles-brussel,,,,,"Livingstonelaan, 1000 Brussel, Bruxelles-brussel",50.8453814,4.3779207,50.53056,3.93897,Provincie Henegouwen
940.0,,Av. de tervuren ,2.0,1040,Bruxelles,Bruxelles-brussel,,,,,"Av. de tervuren , 1040 Bruxelles, Bruxelles-brussel",50.8385172,4.4003178,51.23975,5.112276666666666,Provincie Antwerpen
941.0,,Op  t zand,51.0,3971,Leopoldsburg,Limburg,,,,,"Op  t zand, 3971 Leopoldsburg, Limburg",51.120749,5.2223001,50.36553,4.82174,Provincie Namen
942.0,,Caïmolaan,118.0,3971,Leopoldsburg,Limburg,,,,,"Caïmolaan, 3971 Leopoldsburg, Limburg",51.1188188,5.2511819,50.86202,5.28226,Provincie Limburg
943.0,,De witteln.,4.0,3971,Leopoldsburg,Limburg,,,,,"De witteln., 3971 Leopoldsburg, Limburg",51.1123307,5.2620621,51.1327665,2.67331625,Provincie West-Vlaanderen
944.0,,Groenstraat,5.0,3980,Tessenderlo,Limburg,,Y,,,"Groenstraat, 3980 Tessenderlo, Limburg",51.0734169,5.0934835,51.09758,5.52161,Provincie Limburg
946.0,,Villa-hermosa,1.0,1000,Brussel,Bruxelles-brussel,,Y,,,"Villa-hermosa, 1000 Brussel, Bruxelles-brussel",50.84311,4.358939,50.9069,4.621541,Provincie Vlaams-Brabant
947.0,,Jubelpark,10.0,1000,Brussel,Bruxelles-brussel,,Y,,,"Jubelpark, 1000 Brussel, Bruxelles-brussel",50.841393,4.3904833,51.203652000000005,4.0387115,Provincie Oost-Vlaanderen
950.0,,Guido gezellestraat,1.0,8970,Poperinge,West-vlaanderen,,Y,,,"Guido gezellestraat, 8970 Poperinge, West-vlaanderen",50.8556298,2.7280522,50.98464,5.192155,Provincie Limburg
951.0,,Ouderdomseweg,3.0,8970,Poperinge,West-vlaanderen,,Y,,,"Ouderdomseweg, 8970 Poperinge, West-vlaanderen",50.8370722,2.7603655,50.70605,5.62162,Provincie Luik
952.0,,Havendoklaan,,1800,Vilvoorde,Vlaams-brabant,,,,,"Havendoklaan, 1800 Vilvoorde, Vlaams-brabant",50.9462074,4.4349108,51.36192,4.28113,Provincie Antwerpen
956.0,,Allée de clerlande ,6.0,1340,Ottignies,Brabant wallon,,,,,"Allée de clerlande , 1340 Ottignies, Brabant wallon",50.6791228,4.5910455,50.78581633333334,3.0327823333333335,Provincie West-Vlaanderen
957.0,,Rue de la spinette,37.0,5140,Sombreffe,Namur,,Y,,,"Rue de la spinette, 5140 Sombreffe, Namur",50.490674,4.5910342,51.23617,4.31965,Provincie Antwerpen
958.0,,Porte de liège,7.0,4342,Hognoul,Liège,,,,,"Porte de liège, 4342 Hognoul, Liège",50.6807912,5.4619683,50.87779,4.977669,Provincie Vlaams-Brabant
959.0,,Broekstraat,31.0,1000,Brussel,Bruxelles-brussel,,,,,"Broekstraat, 1000 Brussel, Bruxelles-brussel",50.8523292,4.3598732,50.45824,3.98977,Provincie Henegouwen
960.0,,Boulevard de l empereur ,4.0,1000,Bruxelles,Bruxelles-brussel,,N,,,"Boulevard de l empereur , 1000 Bruxelles, Bruxelles-brussel",50.8430113,4.3531923,50.4092125,4.17218,Provincie Henegouwen
961.0,,Ch. de charleroi,38.0,1060,Bruxelles,Bruxelles-brussel,,,,,"Ch. de charleroi, 1060 Bruxelles, Bruxelles-brussel",50.8268062,4.3550128,51.104781,3.154619,Provincie West-Vlaanderen
962.0,,Rue du commerce,8.0,1400,Nivelles,Brabant wallon,,Y,,,"Rue du commerce, 1400 Nivelles, Brabant wallon",50.5905446,4.3653253,49.86331,4.901,Provincie Namen
966.0,,Industriepark,16.0,3300,Tienen,Vlaams-brabant,,,,,"Industriepark, 3300 Tienen, Vlaams-brabant",50.810928,4.9617336,50.232,4.23728,Provincie Henegouwen
967.0,,Paaiestraat,17.0,2500,Lier,Antwerpen,,,,,"Paaiestraat, 2500 Lier, Antwerpen",51.1538583,4.5421669,50.62913,4.96805,Provincie Namen
968.0,,Blookbergstraat,7.0,3690,Zutendaal,Limburg,,N,,,"Blookbergstraat, 3690 Zutendaal, Limburg",50.9252066,5.5737264,51.17548,5.737185,Provincie Limburg
970.0,,Haachtsesteenweg ,672.0,1910,Kampenhout,Vlaams-brabant,,,,,"Haachtsesteenweg , 1910 Kampenhout, Vlaams-brabant",50.9408733,4.5579187,50.412665,6.1166,Provincie Luik
971.0,,Av. de l enseignement,16.0,7330,Saint-ghislain,Hainaut,,,,,"Av. de l enseignement, 7330 Saint-ghislain, Hainaut",50.4455945,3.8184285,51.30077433333334,3.0784166666666666,Provincie West-Vlaanderen
972.0,,Pantserschipstraat,108.0,9000,Gent,Oost-vlaanderen,,y,,,"Pantserschipstraat, 9000 Gent, Oost-vlaanderen",51.0950648,3.7275399,51.18826,4.90286,Provincie Antwerpen
973.0,,Pantserschipstraat ,108.0,9000,Gent,Oost-vlaanderen,,y,,,"Pantserschipstraat , 9000 Gent, Oost-vlaanderen",51.0950648,3.7275399,50.618025,5.696115000000001,Provincie Luik
974.0,,Avenue du port,57.0,1000,Bruxelles,Bruxelles-brussel,,,,,"Avenue du port, 1000 Bruxelles, Bruxelles-brussel",50.8659203,4.351108,51.18623,5.23503,Provincie Antwerpen
975.0,,Place des armateurs,6.0,1000,Bruxelles,Bruxelles-brussel,,,,,"Place des armateurs, 1000 Bruxelles, Bruxelles-brussel",50.8648221,4.3522302,49.842789999999994,5.43135,Provincie Luxemburg
977.0,,Av. des anciens combattants,260.0,1140,Bruxelles,Bruxelles-brussel,,,,,"Av. des anciens combattants, 1140 Bruxelles, Bruxelles-brussel",50.8650792,4.4093699,50.54333,5.812445,Provincie Luik
979.0,,Koning albert-ii laan,19.0,1210,Brussel,Bruxelles-brussel,,,,,"Koning albert-ii laan, 1210 Brussel, Bruxelles-brussel",50.8580726,4.3559479,51.14495133333333,3.4057903333333335,Provincie Oost-Vlaanderen
980.0,,Museumstraat,9.0,1000,Brussel,Bruxelles-brussel,,Y,,,"Museumstraat, 1000 Brussel, Bruxelles-brussel",50.8426849,4.3577858,50.63941,4.25637,Provincie Waals-Brabant
981.0,,Nelissenlaan ,13.0,3620,Lanaken,Limburg,,Y,,,"Nelissenlaan , 3620 Lanaken, Limburg",50.838479,5.6272245,50.815355299,4.270006831850001,Brussels Hoofdstedelijk Gewest
982.0,,Berenhofstraat,12.0,3620,Veldwezelt,Limburg,,Y,,,"Berenhofstraat, 3620 Veldwezelt, Limburg",50.8649095,5.6290286,50.0807,5.12019,Provincie Luxemburg
983.0,,Biesweg,18.0,3620,Lanaken,Limburg,,Y,,,"Biesweg, 3620 Lanaken, Limburg",50.8860634,5.6069912,50.8596430075,4.245674921700001,Provincie Vlaams-Brabant
984.0,,Populierenlaan,34.0,3620,Rekem,Limburg,,Y,,,"Populierenlaan, 3620 Rekem, Limburg",50.9224513,5.6956777,51.09237,3.661445,Provincie Oost-Vlaanderen
985.0,,Kasteelstraat,32.0,3620,Neerharen,Limburg,,Y,,,"Kasteelstraat, 3620 Neerharen, Limburg",50.9137646,5.696716,51.0164,5.4669,Provincie Limburg
986.0,,Maaseikersteenweg,55.0,3620,Gellik,Limburg,,Y,,,"Maaseikersteenweg, 3620 Gellik, Limburg",50.8887506,5.6736812,51.181293,3.5712205,Provincie Oost-Vlaanderen
987.0,,Jan rosierlaan,1.0,3620,Lanaken,Limburg,,Y,,,"Jan rosierlaan, 3620 Lanaken, Limburg",50.8887739,5.6542624,50.930190499999995,4.4414825,Provincie Vlaams-Brabant
988.0,,Aan de engelse hof,,3620,Lanaken,Limburg,,Y,,,"Aan de engelse hof, 3620 Lanaken, Limburg",50.888793,5.6577054,50.40962,3.68393,Provincie Henegouwen
989.0,,Engelse hof,,3620,Lanaken,Limburg,,Y,,,"Engelse hof, 3620 Lanaken, Limburg",50.888793,5.6577054,51.17483766666667,3.94657,Provincie Oost-Vlaanderen
993.0,,Poverstraat,75.0,1731,Asse,Vlaams-brabant,,Y,,,"Poverstraat, 1731 Asse, Vlaams-brabant",50.8958922,4.2773973,51.211115,4.511535,Provincie Antwerpen
994.0,,Provincieplein,1.0,3010,Leuven,Vlaams-brabant,,Y,,,"Provincieplein, 3010 Leuven, Vlaams-brabant",50.8771925,4.716265,51.0751,2.657695,Provincie West-Vlaanderen
995.0,,Leuvense weg,48.0,1000,Brussel,Bruxelles-brussel,,N,,,"Leuvense weg, 1000 Brussel, Bruxelles-brussel",50.8475486,4.3661227,50.43596,4.60055,Provincie Namen
996.0,,Leuvense weg,48.0,1000,Brussel,Bruxelles-brussel,,N,,,"Leuvense weg, 1000 Brussel, Bruxelles-brussel",50.8475486,4.3661227,50.4419,5.14852,Provincie Namen
997.0,,Leuvense weg,42.0,1000,Brussel,Bruxelles-brussel,,N,,,"Leuvense weg, 1000 Brussel, Bruxelles-brussel",50.8475486,4.3661227,50.54595,4.53163,Provincie Waals-Brabant
998.0,,Hertogstraat,61.0,1000,Brussel,Bruxelles-brussel,,N,,,"Hertogstraat, 1000 Brussel, Bruxelles-brussel",50.8445778,4.3660574,51.074942,3.539279,Provincie Oost-Vlaanderen
999.0,,Leuvenseweg,13.0,1000,Brussel,Bruxelles-brussel,,N,,,"Leuvenseweg, 1000 Brussel, Bruxelles-brussel",50.8475486,4.3661227,50.28804,5.86245,Provincie Luxemburg
1000.0,,Leuvenseweg,13.0,1000,Brussel,Bruxelles-brussel,,N,,,"Leuvenseweg, 1000 Brussel, Bruxelles-brussel",50.8475486,4.3661227,51.05912,5.07134,Provincie Limburg
1001.0,,Leuvenseweg,21.0,1000,Brussel,Bruxelles-brussel,,N,,,"Leuvenseweg, 1000 Brussel, Bruxelles-brussel",50.8475486,4.3661227,50.870393,5.064251,Provincie Vlaams-Brabant
1002.0,,Leuvenseweg,21.0,1000,Brussel,Bruxelles-brussel,,N,,,"Leuvenseweg, 1000 Brussel, Bruxelles-brussel",50.8475486,4.3661227,50.30853,4.54217,Provincie Namen
1003.0,,Leuvenseweg,21.0,1000,Brussel,Bruxelles-brussel,,N,,,"Leuvenseweg, 1000 Brussel, Bruxelles-brussel",50.8475486,4.3661227,51.0670325,4.0250435,Provincie Oost-Vlaanderen
1004.0,,Leuvenseweg,21.0,1000,Brussel,Bruxelles-brussel,,N,,,"Leuvenseweg, 1000 Brussel, Bruxelles-brussel",50.8475486,4.3661227,51.27725433333333,3.0304620000000004,Provincie West-Vlaanderen
1005.0,,Leuvenseweg ,7.0,1000,Brussel,Bruxelles-brussel,,N,,,"Leuvenseweg , 1000 Brussel, Bruxelles-brussel",50.8475486,4.3661227,50.70627,3.67969,Provincie Henegouwen
1006.0,,Leuvenseweg,7.0,1000,Brussel,Bruxelles-brussel,,N,,,"Leuvenseweg, 1000 Brussel, Bruxelles-brussel",50.8475486,4.3661227,50.993143333333336,5.36365,Provincie Limburg
1008.0,,Gemeentestraat,41.0,2560,Nijlen,Antwerpen,,Y,,,"Gemeentestraat, 2560 Nijlen, Antwerpen",51.1614214,4.6729189,51.0543735,3.6949485,Provincie Oost-Vlaanderen
1009.0,,Rue du boignées,13.0,1440,Wauthier-braine,Brabant wallon,,,,,"Rue du boignées, 1440 Wauthier-braine, Brabant wallon",50.6737108,4.3023311,51.1666,4.4282,Provincie Antwerpen
1010.0,,Av. arnaud fraiteur laan,,1050,Bruxelles,Bruxelles-brussel,,,,,"Av. arnaud fraiteur laan, 1050 Bruxelles, Bruxelles-brussel",50.8173055,4.3941276,50.71337,4.70304,Provincie Waals-Brabant
1011.0,,Veldstraat,50.0,9840,De,Oost-vlaanderen,,Y,,,"Veldstraat, 9840 De, Oost-vlaanderen",50.9815015,3.6877595,50.726067,4.226578,Provincie Vlaams-Brabant
1012.0,,Benzineweg,11.0,2020,Antwerpen,Antwerpen,,,,,"Benzineweg, 2020 Antwerpen, Antwerpen",51.1966858,4.3495278,51.180905,4.829075,Provincie Antwerpen
1013.0,,Langerbruggekaai,18.0,9000,Gent,Oost-vlaanderen,,,,,"Langerbruggekaai, 9000 Gent, Oost-vlaanderen",51.1270191,3.7630226,50.497495,4.2914449999999995,Provincie Henegouwen
1014.0,,Drapstraat,76.0,9810,Nazareth,Oost-vlaanderen,,,,,"Drapstraat, 9810 Nazareth, Oost-vlaanderen",50.9585756,3.6083445,51.401565000000005,4.759285,Provincie Antwerpen
1015.0,,Pl. pierre de coubertin,1.0,1348,Louvain-la-neuve,Brabant wallon,,Y,,,"Pl. pierre de coubertin, 1348 Louvain-la-neuve, Brabant wallon",50.6704727,4.6069389,50.93094,5.53508,Provincie Limburg
1019.0,,Graaf jansdijk,1.0,8380,Zeebrugge,West-vlaanderen,,,,,"Graaf jansdijk, 8380 Zeebrugge, West-vlaanderen",51.335122,3.2043642,51.10247733333333,2.5898323333333337,Provincie West-Vlaanderen
1020.0,,Brusselstraat,59.0,2018,Antwerpen,Antwerpen,,,,,"Brusselstraat, 2018 Antwerpen, Antwerpen",51.2002093,4.3920787,50.9508905,4.709846000000001,Provincie Vlaams-Brabant
1021.0,,Station de redu ,,6890,Redu,Luxembourg,,,,,"Station de redu , 6890 Redu, Luxembourg",50.0075195,5.1597629,50.16648,4.17587,Provincie Henegouwen
1022.0,,Rue station de redu,,6890,Redu,Luxembourg,,,,,"Rue station de redu, 6890 Redu, Luxembourg",50.0075195,5.1597629,50.5488,3.3089,Provincie Henegouwen
1023.0,,Rue station de redu,,6890,Redu,Luxembourg,,,,,"Rue station de redu, 6890 Redu, Luxembourg",50.0075195,5.1597629,50.8765373855,4.381597807133334,Brussels Hoofdstedelijk Gewest
1024.0,,Rue de limbourg,79.0,4800,Verviers,Liège,,Y,,,"Rue de limbourg, 4800 Verviers, Liège",50.6011498,5.8822001,50.33426,4.90938,Provincie Namen
1026.0,,Krijgsbaan,,2600,Berchem,Antwerpen,,,,,"Krijgsbaan, 2600 Berchem, Antwerpen",51.1787146,4.4640889,50.640546,5.794968000000001,Provincie Luik
1027.0,,Woluwelaan,11.0,1830,Machelen,Vlaams-brabant,,,,,"Woluwelaan, 1830 Machelen, Vlaams-brabant",50.9101886,4.4300714,50.256375,4.30545,Provincie Namen
1028.0,,Avenue du progrès,,4432,Alleur,Liège,,,,,"Avenue du progrès, 4432 Alleur, Liège",50.6721433,5.5295305,50.741218,4.3392285,Provincie Vlaams-Brabant
1029.0,,Savaanstraat,1.0,9810,Eke,Oost-vlaanderen,,,,,"Savaanstraat, 9810 Eke, Oost-vlaanderen",50.9774634,3.6662144,50.928117,4.340767,Provincie Vlaams-Brabant
1030.0,,Bergensesteenweg,427.0,1600,Sint-pieters-leeuw,Vlaams-brabant,,,,,"Bergensesteenweg, 1600 Sint-pieters-leeuw, Vlaams-brabant",50.7802092,4.2728819,50.802925,3.8240295,Provincie Oost-Vlaanderen
1032.0,,Pantserschipstraat,207.0,9000,Gent,Oost-vlaanderen,,,,,"Pantserschipstraat, 9000 Gent, Oost-vlaanderen",51.0950648,3.7275399,50.22426,4.409800000000001,Provincie Namen
1033.0,,Kerkstraat,36.0,9870,Zulte,Oost-vlaanderen,,,,,"Kerkstraat, 9870 Zulte, Oost-vlaanderen",50.938107,3.4607585,50.28511,5.47878,Provincie Luxemburg
1034.0,,Staatsbaan,149.0,9870,Zulte,Oost-vlaanderen,,,,,"Staatsbaan, 9870 Zulte, Oost-vlaanderen",50.9183519,3.4384489,51.033850666666666,2.858592666666667,Provincie West-Vlaanderen
1035.0,,Staatsbaan,148.0,9870,Zulte,Oost-vlaanderen,,,,,"Staatsbaan, 9870 Zulte, Oost-vlaanderen",50.9183519,3.4384489,50.52113,4.77256,Provincie Namen
1036.0,,Dorpsstraat,46.0,9870,Zulte,Oost-vlaanderen,,,,,"Dorpsstraat, 9870 Zulte, Oost-vlaanderen",50.95789,3.49062,50.980816,4.97654275,Provincie Vlaams-Brabant
1037.0,,Lieven gevaertstraat,15.0,2950,Kapellen,Antwerpen,,Y,,,"Lieven gevaertstraat, 2950 Kapellen, Antwerpen",51.2990518,4.4363605,51.029585,3.0371813333333333,Provincie West-Vlaanderen
1038.0,,A. laporte,34.0,4900,Spa,Liège,,,,,"A. laporte, 4900 Spa, Liège",50.4900751,5.8594426,50.893041,4.142952,Provincie Vlaams-Brabant
1039.0,,Rue frères taymans,28.0,1480,Tubize,Brabant wallon,,Y,,,"Rue frères taymans, 1480 Tubize, Brabant wallon",50.6846143,4.2084932,51.4456,5.09012,Provincie Antwerpen
1040.0,,Rue du parc industriel,31.0,7822,Meslin-l evêque,Hainaut,,Y,,,"Rue du parc industriel, 7822 Meslin-l evêque, Hainaut",50.6536652,3.8660867,50.9664986,4.1823894,Provincie Vlaams-Brabant
1041.0,,Siebeponisweg,7.0,4700,Eupen,Liège,,,,,"Siebeponisweg, 4700 Eupen, Liège",50.6480086,6.0071708,51.31832,4.993855,Provincie Antwerpen
1043.0,,Rue jourdan,,1060,Bruxelles,Bruxelles-brussel,,N,,,"Rue jourdan, 1060 Bruxelles, Bruxelles-brussel",50.8324281,4.3500971,51.14144,4.33806,Provincie Antwerpen
1044.0,,Rue henri jaspaar,,1060,Bruxelles,Bruxelles-brussel,,N,,,"Rue henri jaspaar, 1060 Bruxelles, Bruxelles-brussel",50.832794,4.3477378,50.798874,2.801392,Provincie West-Vlaanderen
1045.0,,Avenue brugmann ,27.0,1060,Bruxelles,Bruxelles-brussel,,Y,,,"Avenue brugmann , 1060 Bruxelles, Bruxelles-brussel",50.8221702,4.353258,50.456255,4.47834,Provincie Henegouwen
1047.0,,Rue de châtelet ,62.0,1495,Villers-la-ville,Brabant wallon,,Y,,,"Rue de châtelet , 1495 Villers-la-ville, Brabant wallon",50.5664722,4.5293103,50.651555,3.590485,Provincie Henegouwen
1048.0,,Straatakkers,1.0,2381,Ravels,Antwerpen,,,,,"Straatakkers, 2381 Ravels, Antwerpen",51.4104576,5.0076464,51.184768,3.010767,Provincie West-Vlaanderen
1049.0,,De wilders,41.0,2382,Ravels,Antwerpen,,,,,"De wilders, 2382 Ravels, Antwerpen",51.4532361,5.0450288,50.96961,5.26572,Provincie Limburg
1050.0,,Place jean jacobs ,6.0,1000,Bruxelles,Bruxelles-brussel,,Y,,,"Place jean jacobs , 1000 Bruxelles, Bruxelles-brussel",50.8354278,4.3523983,50.59316,4.67124,Provincie Namen
1051.0,,Rue des guillemins,113.0,4000,Liège,Liège,,Y,,,"Rue des guillemins, 4000 Liège, Liège",50.628135,5.5672991,49.61918,5.33085,Provincie Luxemburg
1052.0,,Vaartstraat,46.0,3000,Leuven,Vlaams-brabant,,Y,,,"Vaartstraat, 3000 Leuven, Vlaams-brabant",50.8833196,4.7010639,50.906969,4.907388,Provincie Vlaams-Brabant
1053.0,,Sluisberg,1.0,3800,Sint-truiden,Limburg,,Y,,,"Sluisberg, 3800 Sint-truiden, Limburg",50.8140811,5.1836963,50.726205,5.35009,Provincie Luik
1054.0,,Kazernestraat,13.0,3800,Sint-truiden,Limburg,,N,,,"Kazernestraat, 3800 Sint-truiden, Limburg",50.816342,5.1814778,50.16431,5.67355,Provincie Luxemburg
1055.0,,Plankstraat,18.0,3800,Sint-truiden,Limburg,,Y,,,"Plankstraat, 3800 Sint-truiden, Limburg",50.8166477,5.1882394,50.817897,3.530425,Provincie Oost-Vlaanderen
1056.0,,Minderbroedersstraat,25.0,3800,Sint-truiden,Limburg,(CC De Bogaard),Y,,,"Minderbroedersstraat, 3800 Sint-truiden, Limburg",50.8140621,5.1867898,50.603085,5.516125000000001,Provincie Luik
1057.0,,Grote markt ,0.0,3800,Sint-truiden,Limburg,,Y,,,"Grote markt , 3800 Sint-truiden, Limburg",50.8152637,5.1858063,50.54306,3.36136,Provincie Henegouwen
1058.0,,Begaardenbosstraat,,3800,Sint-truiden,Limburg,,Y,,,"Begaardenbosstraat, 3800 Sint-truiden, Limburg",50.85443,5.24016,50.65071,3.92667,Provincie Henegouwen
1059.0,,Jodenstraat ,225.0,3800,Sint-truiden,Limburg,,Y,,,"Jodenstraat , 3800 Sint-truiden, Limburg",50.8145799,5.1923268,51.179378,3.739621,Provincie Oost-Vlaanderen
1060.0,,Sportlaan ,,3800,Sint-truiden,Limburg,,Y,,,"Sportlaan , 3800 Sint-truiden, Limburg",50.82627,5.17175,51.215655,4.6995249999999995,Provincie Antwerpen
1061.0,,Olympialaan ,10.0,3800,Sint-truiden,Limburg,,N,,,"Olympialaan , 3800 Sint-truiden, Limburg",50.8122518,5.1809017,51.35396,4.846,Provincie Antwerpen
1062.0,,Olympialaan,10.0,3800,Sint-truiden,Limburg,Uitleendienst,Y,,,"Olympialaan, 3800 Sint-truiden, Limburg",50.8122518,5.1809017,51.05401666666667,4.358656666666667,Provincie Antwerpen
1063.0,,Boulevard anspach,6.0,1000,Bruxelles,Bruxelles-brussel,,,,,"Boulevard anspach, 1000 Bruxelles, Bruxelles-brussel",50.8481132,4.3493962,50.900766,4.514575,Provincie Vlaams-Brabant
1064.0,,Boulevard anspach,6.0,1000,Bruxelles,Bruxelles-brussel,,,,,"Boulevard anspach, 1000 Bruxelles, Bruxelles-brussel",50.8481132,4.3493962,50.8341635,4.833956000000001,Provincie Vlaams-Brabant
1065.0,,Boulevard e. jacqmain,1.0,1000,Bruxelles,Bruxelles-brussel,,,,,"Boulevard e. jacqmain, 1000 Bruxelles, Bruxelles-brussel",50.8539264,4.3541238,51.128036,4.218212,Provincie Oost-Vlaanderen
1066.0,,Place d escanaffles ,23.0,7760,Escanaffles,Hainaut,,,,,"Place d escanaffles , 7760 Escanaffles, Hainaut",50.7565846,3.4489474,50.988496999999995,3.2019125,Provincie West-Vlaanderen
1067.0,,Rue du prévôt,,1050,Bruxelles,Bruxelles-brussel,,Y,,,"Rue du prévôt, 1050 Bruxelles, Bruxelles-brussel",50.8209063,4.3610502,51.04792,5.18836,Provincie Limburg
1068.0,,Avenue albert,,1342,Limelette,Brabant wallon,,,,,"Avenue albert, 1342 Limelette, Brabant wallon",50.7275481,4.5043911,50.45474,5.95602,Provincie Luik
1069.0,,Avenue greiner,1.0,4100,Seraing,Liège,,,,,"Avenue greiner, 4100 Seraing, Liège",50.6145603,5.526257,50.68497,4.37865,Provincie Waals-Brabant
1070.0,,Gemeenteplein,39.0,1560,Hoeilaart,Vlaams-brabant,,Y,,,"Gemeenteplein, 1560 Hoeilaart, Vlaams-brabant",50.7681881,4.4728505,50.62095,4.81227,Provincie Waals-Brabant
1071.0,,Industrieweg,3.0,2880,Bornem,Antwerpen,,Y,,,"Industrieweg, 2880 Bornem, Antwerpen",51.0913618,4.2608021,50.39266,4.08623,Provincie Henegouwen
1072.0,,Hombeeksesteenweg ,323.0,2800,Mechelen,Antwerpen,,,,,"Hombeeksesteenweg , 2800 Mechelen, Antwerpen",51.0168688,4.4658472,50.832991,3.2554295,Provincie West-Vlaanderen
1073.0,,Sint-jorisplein,25.0,3300,Tienen,Vlaams-brabant,,Y,,,"Sint-jorisplein, 3300 Tienen, Vlaams-brabant",50.8046571,4.9361545,51.01956,4.543615,Provincie Antwerpen
1074.0,,Rue du parc industriel,1.0,4480,Engis,Liège,,,,,"Rue du parc industriel, 4480 Engis, Liège",50.5728511,5.3969677,51.12736,3.4906816666666667,Provincie Oost-Vlaanderen
1076.0,,Industrieweg,80.0,3620,Lanaken,Limburg,,,,,"Industrieweg, 3620 Lanaken, Limburg",50.8754131,5.6546944,51.05987,5.64725,Provincie Limburg
1077.0,,Industrieweg,80.0,3620,Lanaken,Limburg,,,,,"Industrieweg, 3620 Lanaken, Limburg",50.8754131,5.6546944,50.40955,4.393566666666667,Provincie Henegouwen
1078.0,,Industrieweg,80.0,3620,Lanaken,Limburg,,,,,"Industrieweg, 3620 Lanaken, Limburg",50.8754131,5.6546944,51.010631333333336,2.715003666666667,Provincie West-Vlaanderen
1079.0,Appareil fixe-Vast apparaat,Avenue albert ier,60.0,5000,Namur,Namur,Rez-de-chaussée,Oui-Ja,Non-Nee,Lundi au vendredi de 6h à 21h30,"Avenue albert ier, 5000 Namur, Namur",50.4669265,4.8888417,50.9263035,3.3425125,Provincie West-Vlaanderen
1080.0,Appareil fixe-Vast apparaat,Avenue albert ier,60.0,5000,Namur,Namur,Rez-de-chaussée,Oui-Ja,Non-Nee,Lundi au vendredi de 6h à 21h30,"Avenue albert ier, 5000 Namur, Namur",50.4669265,4.8888417,49.95182,4.50903,Provincie Namen
1081.0,Appareil fixe-Vast apparaat,Boulevard piercot,35.0,4000,Liège,Liège,1er étage (ex) infirmerie ,Oui-Ja,Non-Nee,lundi au vendredi de 9h à 18h,"Boulevard piercot, 4000 Liège, Liège",50.6359118,5.570714,51.18471,4.58776,Provincie Antwerpen
1082.0,,E. solvay,376.0,4000,Liège,Liège,,,,,"E. solvay, 4000 Liège, Liège",50.6590203,5.5976884,50.39922,4.701015,Provincie Namen
1083.0,,Rue d arlon,50.0,6780,Messancy,Luxembourg,,Y,,,"Rue d arlon, 6780 Messancy, Luxembourg",49.6081576,5.8110324,50.896479,3.994851,Provincie Oost-Vlaanderen
1084.0,,Boulevard du triomphe ,135.0,1050,Bruxelles,Bruxelles-brussel,,,,,"Boulevard du triomphe , 1050 Bruxelles, Bruxelles-brussel",50.8221692,4.401083,50.882016,3.546858,Provincie Oost-Vlaanderen
1085.0,,Rue camille hubert,2.0,5032,Gembloux,Namur,,,,,"Rue camille hubert, 5032 Gembloux, Namur",50.5053969,4.7174731,50.79974,5.21098,Provincie Limburg
1086.0,,Route de la lache,4.0,5150,Floreffe,Namur,,,,,"Route de la lache, 5150 Floreffe, Namur",50.4451167,4.7931747,50.845272,2.658971,Provincie West-Vlaanderen
1087.0,,Luchthavenlei,,2600,Berchem,Antwerpen,,,,,"Luchthavenlei, 2600 Berchem, Antwerpen",51.1845719,4.4602238,50.1699,4.73041,Provincie Namen
1088.0,,Motstraat,40.0,2800,Mechelen,Antwerpen,,,,,"Motstraat, 2800 Mechelen, Antwerpen",51.0144121,4.4919669,50.39489666666667,5.932006666666666,Provincie Luik
1093.0,,St. lendriksborre,3.0,1120,Brussel,Bruxelles-brussel,,,,,"St. lendriksborre, 1120 Brussel, Bruxelles-brussel",50.9093288,4.3967014,50.938788,3.785364,Provincie Oost-Vlaanderen
1094.0,,Weiveldlaan ,19.0,1930,Zaventem,Vlaams-brabant,,,,,"Weiveldlaan , 1930 Zaventem, Vlaams-brabant",50.8697359,4.496495,50.527883333333335,4.255863333333333,Provincie Henegouwen
1096.0,,Avenue du bourget ,60.0,1140,Brussel,Bruxelles-brussel,,,,,"Avenue du bourget , 1140 Brussel, Bruxelles-brussel",50.8771194,4.4192445,50.55331,4.00737,Provincie Henegouwen
1097.0,,Avenue du bourget,60.0,1140,Brussel,Bruxelles-brussel,,,,,"Avenue du bourget, 1140 Brussel, Bruxelles-brussel",50.8771194,4.4192445,50.58476,5.44956,Provincie Luik
1098.0,,Rue de la spinette ,1.0,5140,Sombreffe,Namur,,,,,"Rue de la spinette , 5140 Sombreffe, Namur",50.490674,4.5910342,50.80282,5.34611,Provincie Limburg
1099.0,,Industriestrasse,,4700,Eupen,Liège,,,,,"Industriestrasse, 4700 Eupen, Liège",50.6378717,6.0060251,50.893298,4.436152,Provincie Vlaams-Brabant
1100.0,,Rue chapelle beaussart,80.0,6030,Marchienne-au-pont,Hainaut,,N,,,"Rue chapelle beaussart, 6030 Marchienne-au-pont, Hainaut",50.4028999,4.4171535,50.48371,3.913065,Provincie Henegouwen
1102.0,,Sint bernardusplain ,2.0,8620,Nieuwpoort,West-vlaanderen,,Y,,,"Sint bernardusplain , 8620 Nieuwpoort, West-vlaanderen",51.1455409,2.7115582,49.7326,5.65524,Provincie Luxemburg
1103.0,,Marktplein ,7.0,8620,Nieuwpoort,West-vlaanderen,,Y,,,"Marktplein , 8620 Nieuwpoort, West-vlaanderen",51.1293796,2.7516311,50.19744,5.43308,Provincie Luxemburg
1104.0,,Kaai  ,,8620,Nieuwpoort,West-vlaanderen,,Y,,,"Kaai  , 8620 Nieuwpoort, West-vlaanderen",51.1334445,2.7478312,50.748936,4.5714695,Provincie Vlaams-Brabant
1105.0,,Dudenhofenlaan,,8620,Nieuwpoort,West-vlaanderen,,Y,,,"Dudenhofenlaan, 8620 Nieuwpoort, West-vlaanderen",51.13556,2.73474,51.021361,3.768794,Provincie Oost-Vlaanderen
1106.0,,Avenue de stalingrad ,,1000,Bruxelles,Bruxelles-brussel,,Y,,,"Avenue de stalingrad , 1000 Bruxelles, Bruxelles-brussel",50.8410288,4.3433955,50.964118,3.922163,Provincie Oost-Vlaanderen
1107.0,,Kerkstraat,61.0,2970,Schilde,Antwerpen,,,,,"Kerkstraat, 2970 Schilde, Antwerpen",51.2632133,4.5547507,51.16158,4.65374,Provincie Antwerpen
1108.0,,Schoolstraat,44.0,2970,Schilde,Antwerpen,,,,,"Schoolstraat, 2970 Schilde, Antwerpen",51.2357767,4.5816125,50.41683,4.33796,Provincie Henegouwen
1109.0,,Brasschaatse baan,30.0,2970,Schilde,Antwerpen,,,,,"Brasschaatse baan, 2970 Schilde, Antwerpen",51.2441106,4.5744671,51.221065,3.235181,Provincie West-Vlaanderen
1110.0,,Pater nuyenlaan ,70.0,2970,Schilde,Antwerpen,,,,,"Pater nuyenlaan , 2970 Schilde, Antwerpen",51.2395778,4.5491227,50.54227,5.2316,Provincie Luik
1111.0,,De kaak wijnegem steenweg,,2970,Schilde,Antwerpen,,,,,"De kaak wijnegem steenweg, 2970 Schilde, Antwerpen",51.2633449,4.5510448,50.46141,4.38721,Provincie Henegouwen
1112.0,,Zwijnaardsesteenweg ,811.0,9000,Gent,Oost-vlaanderen,,,,,"Zwijnaardsesteenweg , 9000 Gent, Oost-vlaanderen",51.0271711,3.722048,50.49456,4.14607,Provincie Henegouwen
1113.0,,Zwijnaardsesteenweg ,811.0,9000,Gent,Oost-vlaanderen,,,,,"Zwijnaardsesteenweg , 9000 Gent, Oost-vlaanderen",51.0271711,3.722048,50.53942,5.58594,Provincie Luik
1114.0,,Koning albert ii laan ,20.0,1000,Brussel,Bruxelles-brussel,,Y,,,"Koning albert ii laan , 1000 Brussel, Bruxelles-brussel",50.8607832,4.3573496,50.38079,6.28215,Provincie Luik
1115.0,,Koning albert ii laan ,35.0,1000,Brussel,Bruxelles-brussel,,,,,"Koning albert ii laan , 1000 Brussel, Bruxelles-brussel",50.8607832,4.3573496,50.73729,5.12496,Provincie Limburg
1117.0,,Koolstraat,35.0,1000,Brussel,Bruxelles-brussel,,,,,"Koolstraat, 1000 Brussel, Bruxelles-brussel",50.8522096,4.3577535,51.03219,5.7082,Provincie Limburg
1118.0,,Avenue de la porallée ,,4920,Aywaille,Liège,,Y,,,"Avenue de la porallée , 4920 Aywaille, Liège",50.4791647,5.6986837,51.01097566666667,4.2104843333333335,Provincie Oost-Vlaanderen
1124.0,,Schuurhovenveld ,4220.0,3800,Sint-truiden,Limburg,,,,,"Schuurhovenveld , 3800 Sint-truiden, Limburg",50.8019192,5.2202655,51.218992,4.431664,Provincie Antwerpen
1125.0,,C. van kerkhovenstraat ,110.0,2880,Bornem,Antwerpen,,,,,"C. van kerkhovenstraat , 2880 Bornem, Antwerpen",51.0981846,4.2681556,50.934402666666664,4.035780333333333,Provincie Oost-Vlaanderen
1126.0,,Eikenlaan ,25.0,3740,Bilzen,Limburg,,,,,"Eikenlaan , 3740 Bilzen, Limburg",50.8665908,5.5127827,50.923562,3.242048,Provincie West-Vlaanderen
1127.0,,Boulevard international ,55.0,1070,Bruxelles,Bruxelles-brussel,,,,,"Boulevard international , 1070 Bruxelles, Bruxelles-brussel",50.8143522,4.3023946,51.314980000000006,4.4264725,Provincie Antwerpen
1128.0,,Bergstraat,5.0,9700,Oudenaarde,Oost-vlaanderen,,Y,,,"Bergstraat, 9700 Oudenaarde, Oost-vlaanderen",50.8411031,3.6120203,50.56938,4.17019,Provincie Henegouwen
1129.0,,Grachtstraat ,,8900,Ieper,West-vlaanderen,,Y,,,"Grachtstraat , 8900 Ieper, West-vlaanderen",50.8499873,2.8763287,51.083115,5.2036,Provincie Limburg
1130.0,,Stationsplein,55.0,8800,Roeselare,West-vlaanderen,,Y,,,"Stationsplein, 8800 Roeselare, West-vlaanderen",50.9492425,3.1295561,50.81665,4.39924,Brussels Hoofdstedelijk Gewest
1133.0,,Rue du baron d obin ,143.0,4219,Wasseiges,Liège,,,,,"Rue du baron d obin , 4219 Wasseiges, Liège",50.6229069,5.0034285,51.021774,4.114221,Provincie Oost-Vlaanderen
1138.0,,Rue cambier dupret,,6001,Marcinelle,Hainaut,,Y,,,"Rue cambier dupret, 6001 Marcinelle, Hainaut",50.4044476,4.4485016,50.59081833333333,5.8504233333333335,Provincie Luik
1140.0,,Gaston crommenlaan,4.0,9050,Ledeberg,Oost-vlaanderen,,Y,,,"Gaston crommenlaan, 9050 Ledeberg, Oost-vlaanderen",51.0349025,3.7360578,50.74586,5.78645,Provincie Limburg
1141.0,,Gaston crommenlaan,4.0,9050,Ledeberg,Oost-vlaanderen,,Y,,,"Gaston crommenlaan, 9050 Ledeberg, Oost-vlaanderen",51.0349025,3.7360578,50.765508,4.084607,Provincie Vlaams-Brabant
1142.0,,Lange gasthuisstraat,20.0,2018,Antwerpen,Antwerpen,,,,,"Lange gasthuisstraat, 2018 Antwerpen, Antwerpen",51.21458,4.4050147,50.76975,4.79107,Provincie Waals-Brabant
1143.0,,Gulden vlieslaan ,87.0,1060,Brussel,Bruxelles-brussel,,Y,,,"Gulden vlieslaan , 1060 Brussel, Bruxelles-brussel",50.8357771,4.3554936,51.2052,4.76586,Provincie Antwerpen
1144.0,,Industrielaan ,40.0,3730,Hoeselt,Limburg,,Y,,,"Industrielaan , 3730 Hoeselt, Limburg",50.860567,5.4919969,50.535473333333336,5.732733333333334,Provincie Luik
1145.0,,Emmanuel de neckerestraat ,5.0,8000,Brugge,West-vlaanderen,,Y,,,"Emmanuel de neckerestraat , 8000 Brugge, West-vlaanderen",51.2161429,3.2122155,50.990265,3.590958,Provincie Oost-Vlaanderen
1146.0,,Jozef van cleemputplein ,,2850,Boom,Antwerpen,,,,,"Jozef van cleemputplein , 2850 Boom, Antwerpen",51.0895943,4.3719852,50.768402,4.473054333333334,Provincie Vlaams-Brabant
1147.0,,Leopold ii park ,,8620,Nieuwpoort,West-vlaanderen,,Y,,,"Leopold ii park , 8620 Nieuwpoort, West-vlaanderen",51.1300027,2.7447862,50.67284,5.08009,Provincie Luik
1148.0,,St-jobsteenweg ,120.0,2970,Schilde,Antwerpen,,,,,"St-jobsteenweg , 2970 Schilde, Antwerpen",51.2731062,4.569685,50.430715000000006,3.79699,Provincie Henegouwen
1149.0,,Rue de canal ,2.0,4600,Lixhe,Liège,,Y,,,"Rue de canal , 4600 Lixhe, Liège",50.7543742,5.6742176,51.129275,3.678922,Provincie Oost-Vlaanderen
1150.0,,Rue du canal ,4.0,4600,Lixhe,Liège,,Y,,,"Rue du canal , 4600 Lixhe, Liège",50.7543742,5.6742176,49.75098,5.78527,Provincie Luxemburg
1151.0,,Chaussée de bruxelles,88.0,1400,Nivelles,Brabant wallon,,,,,"Chaussée de bruxelles, 1400 Nivelles, Brabant wallon",50.6080277,4.3343056,50.48804,5.025585,Provincie Namen
1152.0,,Industriepark ,3.0,2235,Hulshout,Antwerpen,,,,,"Industriepark , 2235 Hulshout, Antwerpen",51.084628,4.8102369,51.222385,2.955838,Provincie West-Vlaanderen
1153.0,,Entrepotstraat,2.0,9300,Sint-niklaas,Oost-vlaanderen,,Y,,,"Entrepotstraat, 9300 Sint-niklaas, Oost-vlaanderen",51.1749362,4.1664699,50.85178112344445,4.381640242944445,Brussels Hoofdstedelijk Gewest
1154.0,,Rue géo warzée,19.0,4520,Wanze,Liège,,,,,"Rue géo warzée, 4520 Wanze, Liège",50.5360311,5.2230265,50.55146,3.79602,Provincie Henegouwen
1155.0,,Rue moucousin ,26.0,4520,Wanze,Liège,,,,,"Rue moucousin , 4520 Wanze, Liège",50.5531441,5.1992793,51.2244125,3.7537205,Provincie Oost-Vlaanderen
1156.0,,Rue de châtelet ,62.0,1495,Villers-la-ville,Brabant wallon,,Y,,,"Rue de châtelet , 1495 Villers-la-ville, Brabant wallon",50.5664722,4.5293103,50.87448166666667,4.786921333333333,Provincie Vlaams-Brabant
1157.0,,Sportlaan ,1.0,3400,Landen,Vlaams-brabant,,Y,,,"Sportlaan , 3400 Landen, Vlaams-brabant",50.7512729,5.0841163,50.983698,5.051617,Provincie Vlaams-Brabant
1158.0,,Sportlaan ,1.0,3400,Landen,Vlaams-brabant,,Y,,,"Sportlaan , 3400 Landen, Vlaams-brabant",50.7512729,5.0841163,50.51642,5.91068,Provincie Luik
1159.0,,Rue de l eglise ,21.0,4340,Awans,Liège,,,,,"Rue de l eglise , 4340 Awans, Liège",50.6656391,5.4622643,50.61542,5.619445000000001,Provincie Luik
1160.0,,Tiensesteenweg ,127.0,3800,Sint-truiden,Limburg,,Y,,,"Tiensesteenweg , 3800 Sint-truiden, Limburg",50.8134991,5.1589594,50.10646,5.47639,Provincie Luxemburg
1161.0,,Allée des artisans ,,5590,Ciney,Namur,,Y,,,"Allée des artisans , 5590 Ciney, Namur",50.3102642,5.1074074,50.43166,4.55118,Provincie Henegouwen
1162.0,,Boezingestraat ,,8920,Langemark-poelkapelle,West-vlaanderen,,,,,"Boezingestraat , 8920 Langemark-poelkapelle, West-vlaanderen",50.9078784,2.9103989,50.37178,4.02765,Provincie Henegouwen
1163.0,,Chaussée de waterloo,1453.0,1180,Bruxelles,Bruxelles-brussel,,,,,"Chaussée de waterloo, 1180 Bruxelles, Bruxelles-brussel",50.7860087,4.3770847,50.544325,5.025245,Provincie Namen
1165.0,,Henry fordlaan,60.0,3600,Genk,Limburg,,N,,,"Henry fordlaan, 3600 Genk, Limburg",50.9207085,5.4856338,50.50852,4.480735,Provincie Henegouwen
1166.0,,Onze-lieve-vrouwlaan ,1.0,2570,Duffel,Antwerpen,,,,,"Onze-lieve-vrouwlaan , 2570 Duffel, Antwerpen",51.0931208,4.509713,50.02697,4.62626,Provincie Namen
1167.0,,Telecomlaan ,5.0,1831,Diegem,Vlaams-brabant,,,,,"Telecomlaan , 1831 Diegem, Vlaams-brabant",50.8832878,4.4404832,50.912658,4.200895,Provincie Vlaams-Brabant
1168.0,,Telecomlaan ,5.0,1831,Diegem,Vlaams-brabant,,,,,"Telecomlaan , 1831 Diegem, Vlaams-brabant",50.8832878,4.4404832,51.16307,4.39882,Provincie Antwerpen
1169.0,,Rue sur les keyeux,,4630,Soumagne,Liège,,,,,"Rue sur les keyeux, 4630 Soumagne, Liège",50.6242622,5.719239,51.237035,5.37678,Provincie Limburg
1170.0,,Place de la gare,,4630,Soumagne,Liège,,,,,"Place de la gare, 4630 Soumagne, Liège",50.6318821,5.7321288,51.200307,3.32851,Provincie West-Vlaanderen
1171.0,,Rue pierre currie ,36.0,4630,Soumagne,Liège,,Y,,,"Rue pierre currie , 4630 Soumagne, Liège",50.609121,5.7514654,51.07486,4.27464,Provincie Antwerpen
1173.0,,Laura fredericklaan,15.0,8600,Diksmuide,West-vlaanderen,,Y,,,"Laura fredericklaan, 8600 Diksmuide, West-vlaanderen",51.039684,2.8744752,50.804098,3.6741,Provincie Oost-Vlaanderen
1174.0,,Nieuwpoortsesteenweg ,889.0,8400,Oostende,West-vlaanderen,,,,,"Nieuwpoortsesteenweg , 8400 Oostende, West-vlaanderen",51.2102562,2.8770471,50.678685,5.622945,Provincie Luik
1175.0,,Brusselstraat ,15.0,8400,Oostende,West-vlaanderen,,,,,"Brusselstraat , 8400 Oostende, West-vlaanderen",51.2299477,2.9131906,50.865066,4.585604,Provincie Vlaams-Brabant
1177.0,,Groenenborgerlaan ,171.0,2020,Antwerpen,Antwerpen,,,,,"Groenenborgerlaan , 2020 Antwerpen, Antwerpen",51.1770817,4.4162557,50.6544,5.54656,Provincie Luik
1178.0,,Grote kauwenberg,2.0,2020,Antwerpen,Antwerpen,,,,,"Grote kauwenberg, 2020 Antwerpen, Antwerpen",51.2227998,4.4113968,50.3944425,4.4668375000000005,Provincie Henegouwen
1180.0,,Rue des ecoles,3.0,4210,Burdinne,Liège,,,,,"Rue des ecoles, 4210 Burdinne, Liège",50.5838803,5.0741099,49.77953,5.23541,Provincie Luxemburg
1181.0,,Rue des ecoles,3.0,4210,Burdinne,Liège,,,,,"Rue des ecoles, 4210 Burdinne, Liège",50.5838803,5.0741099,50.71219,5.7483,Provincie Luik
1182.0,,Rue des hêtres,10.0,5100,Jambes,Namur,,,,,"Rue des hêtres, 5100 Jambes, Namur",50.45595,4.88948,50.66032,4.55242,Provincie Waals-Brabant
1183.0,,Chaussée de romaine,60.0,6600,Bastogne,Luxembourg,,Y,,,"Chaussée de romaine, 6600 Bastogne, Luxembourg",50.0186929,5.785085100000001,50.8053715,3.282394,Provincie West-Vlaanderen
1185.0,,Kaardeloodstraat ,97.0,9400,Ninove,Oost-vlaanderen,,Y,,,"Kaardeloodstraat , 9400 Ninove, Oost-vlaanderen",50.8355705,4.0205781,50.424825,4.22332,Provincie Henegouwen
1189.0,,Chaussée de la hulpe ,154.0,1170,Bruxelles,Bruxelles-brussel,,,,,"Chaussée de la hulpe , 1170 Bruxelles, Bruxelles-brussel",50.7853772,4.4259216,49.63655,5.77208,Provincie Luxemburg
1191.0,,Quai des ardennes ,127.0,4031,Angleur,Liège,,,,,"Quai des ardennes , 4031 Angleur, Liège",50.6163006,5.5985986,51.33378,3.241646,Provincie West-Vlaanderen
1192.0,,Rue du canal de l ourthe,8.0,4031,Angleur,Liège,,,,,"Rue du canal de l ourthe, 4031 Angleur, Liège",50.6126815,5.6062938,51.087408,3.189792,Provincie West-Vlaanderen
1193.0,,Solveld ,32.0,3980,Tessenderlo,Limburg,,Y,,,"Solveld , 3980 Tessenderlo, Limburg",51.063089,5.0864882,51.118996,3.563268,Provincie Oost-Vlaanderen
1194.0,,Avenue des communautés,5.0,1140,Bruxelles,Bruxelles-brussel,,,,,"Avenue des communautés, 1140 Bruxelles, Bruxelles-brussel",50.8582569,4.4251813,49.51786,5.60335,Provincie Luxemburg
1195.0,,Rue de russie ,41.0,1060,Bruxelles,Bruxelles-brussel,,,,,"Rue de russie , 1060 Bruxelles, Bruxelles-brussel",50.8360555,4.3403628,50.0376,4.42105,Provincie Namen
1196.0,,Route de lennik,1015.0,1070,Bruxelles,Bruxelles-brussel,,,,,"Route de lennik, 1070 Bruxelles, Bruxelles-brussel",50.815455,4.2685337,50.80813,5.57222,Provincie Limburg
1197.0,,Rue de la perche 38,38.0,1060,Bruxelles,Bruxelles-brussel,,,,,"Rue de la perche 38, 1060 Bruxelles, Bruxelles-brussel",50.8266504,4.3412065,50.28153,4.18841,Provincie Henegouwen
1198.0,,Rue fond des bas près ,1.0,5000,Namur,Namur,,,,,"Rue fond des bas près , 5000 Namur, Namur",50.4678596,4.8479908,50.63627,5.323175,Provincie Luik
1199.0,,Rue des dames blanches,24.0,5000,Namur,Namur,,Y,,,"Rue des dames blanches, 5000 Namur, Namur",50.4672075,4.8669199,50.91912,5.4254,Provincie Limburg
1201.0,,Dellestraat ,55.0,3550,Heusden-zolder,Limburg,,N,,,"Dellestraat , 3550 Heusden-zolder, Limburg",50.98805,5.24007,50.43401,4.414736666666666,Provincie Henegouwen
1202.0,,Rue maréchal foch ,21.0,4400,Flémalle,Liège,,,,,"Rue maréchal foch , 4400 Flémalle, Liège",50.599204,5.4720373,50.01134,5.16799,Provincie Luxemburg
1203.0,,Place de la bienfaisance /cité rey,100.0,7090,Braine-le-comte,Hainaut,,Y,,,"Place de la bienfaisance /cité rey, 7090 Braine-le-comte, Hainaut",50.6138075,4.1418194,50.37137,5.02252,Provincie Namen
1204.0,,Rue des frères dulait,19.0,7090,Braine-le-comte,Hainaut,,Y,,,"Rue des frères dulait, 7090 Braine-le-comte, Hainaut",50.601818,4.1355043,49.91713,5.5069,Provincie Luxemburg
1205.0,,Grand-place ,39.0,7090,Braine-le-comte,Hainaut,HALL ENTREE ACCUEIL,Y,N,,"Grand-place , 7090 Braine-le-comte, Hainaut",50.6103999,4.1361955,50.60008666666667,3.71153,Provincie Henegouwen
1206.0,,Rue de crampon ,14.0,7500,Tournai,Hainaut,,y,,,"Rue de crampon , 7500 Tournai, Hainaut",50.6188554,3.3970662,51.38802,4.8916,Provincie Antwerpen
1207.0,,Chaussée de liège ,219.0,5100,Jambes,Namur,,Y,,,"Chaussée de liège , 5100 Jambes, Namur",50.4603455,4.8865317,50.738843333333335,3.73117,Provincie Henegouwen
1208.0,,Rue du bilemont,225.0,7700,Mouscron,Hainaut,,Y,,,"Rue du bilemont, 7700 Mouscron, Hainaut",50.7361362,3.2158739,50.7874235,4.2978130000000005,Provincie Vlaams-Brabant
1209.0,,Place des archers ,8.0,7000,Mons,Hainaut,,Y,,,"Place des archers , 7000 Mons, Hainaut",50.452059,3.9569633,50.33701,4.35447,Provincie Henegouwen
1210.0,,Rue natalis ,49.0,4020,Liège,Liège,,Y,,,"Rue natalis , 4020 Liège, Liège",50.6306172,5.5823268,51.283265,3.584712,Provincie Oost-Vlaanderen
1211.0,,Rue gustave boël ,19.0,7100,La,Hainaut,,Y,,,"Rue gustave boël , 7100 La, Hainaut",50.4789615,4.174363,50.26596,5.64012,Provincie Luxemburg
1212.0,,Avenue des fossées ,,4500,Huy,Liège,,Y,,,"Avenue des fossées , 4500 Huy, Liège",50.5208108,5.2334446,50.888431,3.105956,Provincie West-Vlaanderen
